{
  "type": "FeatureCollection",
  "generator": "overpass-turbo",
  "copyright": "The data included in this document is from www.openstreetmap.org. The data is made available under ODbL.",
  "timestamp": "2024-06-15T12:13:00Z",
  "features": [
    {
      "type": "Feature",
      "properties": {
        "@id": "node/18085924",
        "name": "Buxton",
        "name:arz": "باكستين",
        "name:azb": "بوکستون",
        "name:br": "Buxton",
        "name:ceb": "Buxton",
        "name:cy": "Buxton",
        "name:da": "Buxton",
        "name:de": "Buxton",
        "name:es": "Buxton",
        "name:fa": "بوکستون",
        "name:fr": "Buxton",
        "name:ga": "Buxton",
        "name:it": "Buxton",
        "name:ko": "벅스턴",
        "name:nl": "Buxton",
        "name:nn": "Buxton",
        "name:no": "Buxton",
        "name:pl": "Buxton",
        "name:pt": "Buxton",
        "name:ro": "Buxton",
        "name:ru": "Бакстон",
        "name:sv": "Buxton",
        "name:vo": "Buxton",
        "name:zh": "巴克斯頓",
        "place": "town",
        "wikidata": "Q971223",
        "wikipedia": "en:Buxton"
      },
      "geometry": {
        "type": "Point",
        "coordinates": [
          -1.9100768,
          53.2593422
        ]
      },
      "id": "node/18085924"
    },
    {
      "type": "Feature",
      "properties": {
        "@id": "node/18086345",
        "is_in": "High Peak,Derbyshire,England,UK, GB",
        "name": "Castleton",
        "place": "village"
      },
      "geometry": {
        "type": "Point",
        "coordinates": [
          -1.7746203,
          53.3430786
        ]
      },
      "id": "node/18086345"
    },
    {
      "type": "Feature",
      "properties": {
        "@id": "node/18086507",
        "name": "Combs",
        "place": "village",
        "wikidata": "Q5150972"
      },
      "geometry": {
        "type": "Point",
        "coordinates": [
          -1.9389563,
          53.304297
        ]
      },
      "id": "node/18086507"
    },
    {
      "type": "Feature",
      "properties": {
        "@id": "node/21230257",
        "name": "Edale",
        "place": "village"
      },
      "geometry": {
        "type": "Point",
        "coordinates": [
          -1.8162128,
          53.3676409
        ]
      },
      "id": "node/21230257"
    },
    {
      "type": "Feature",
      "properties": {
        "@id": "node/21904579",
        "alt_name:mk": "Дерби",
        "is_in": "England, Derbyshire",
        "is_in:country": "United Kingdom",
        "is_in:country_code": "GB",
        "is_in:county": "Derbyshire",
        "name": "Derby",
        "name:ar": "ديربي",
        "name:en": "Derby",
        "name:hu": "Derby",
        "name:ko": "더비",
        "name:lt": "Derbis",
        "name:mk": "Дарби",
        "name:ru": "Дерби",
        "name:sr": "Дарби",
        "name:uk": "Дербі",
        "name:ur": "ڈربی",
        "name:zh": "德比",
        "place": "city",
        "population": "233700",
        "wikidata": "Q43475",
        "wikipedia": "en:Derby"
      },
      "geometry": {
        "type": "Point",
        "coordinates": [
          -1.4761491,
          52.9212617
        ]
      },
      "id": "node/21904579"
    },
    {
      "type": "Feature",
      "properties": {
        "@id": "node/25822066",
        "name": "Doveridge",
        "place": "village",
        "population": "1622",
        "wikidata": "Q289045",
        "wikipedia": "en:Doveridge"
      },
      "geometry": {
        "type": "Point",
        "coordinates": [
          -1.8283091,
          52.9044622
        ]
      },
      "id": "node/25822066"
    },
    {
      "type": "Feature",
      "properties": {
        "@id": "node/25828246",
        "name": "Marston Montgomery",
        "place": "village",
        "wikidata": "Q569865",
        "wikipedia": "en:Marston Montgomery"
      },
      "geometry": {
        "type": "Point",
        "coordinates": [
          -1.8002822,
          52.9382615
        ]
      },
      "id": "node/25828246"
    },
    {
      "type": "Feature",
      "properties": {
        "@id": "node/26349527",
        "name": "Fenny Bentley",
        "place": "village",
        "source": "local_knowledge",
        "wikidata": "Q4007961"
      },
      "geometry": {
        "type": "Point",
        "coordinates": [
          -1.7403248,
          53.0478128
        ]
      },
      "id": "node/26349527"
    },
    {
      "type": "Feature",
      "properties": {
        "@id": "node/26349528",
        "name": "Thorpe",
        "place": "village",
        "wikidata": "Q2136585"
      },
      "geometry": {
        "type": "Point",
        "coordinates": [
          -1.7694748,
          53.0490983
        ]
      },
      "id": "node/26349528"
    },
    {
      "type": "Feature",
      "properties": {
        "@id": "node/26419849",
        "is_in": "High Peak,Derbyshire",
        "name": "Glossop",
        "name:ur": "گلاسپ",
        "place": "town",
        "population": "33000",
        "source:name": "local knowledge",
        "wikidata": "Q383912",
        "wikipedia": "en:Glossop"
      },
      "geometry": {
        "type": "Point",
        "coordinates": [
          -1.9499173,
          53.4433552
        ]
      },
      "id": "node/26419849"
    },
    {
      "type": "Feature",
      "properties": {
        "@id": "node/26419861",
        "is_in": "High Peak,Derbyshire",
        "name": "Tunstead Milton",
        "place": "hamlet",
        "source:name": "local knowledge",
        "wikidata": "Q7853383"
      },
      "geometry": {
        "type": "Point",
        "coordinates": [
          -1.9543704,
          53.3183066
        ]
      },
      "id": "node/26419861"
    },
    {
      "type": "Feature",
      "properties": {
        "@id": "node/26419893",
        "is_in": "High Peak,Derbyshire",
        "name": "Chapel Milton",
        "place": "hamlet",
        "source:name": "local knowledge",
        "wikidata": "Q5073036"
      },
      "geometry": {
        "type": "Point",
        "coordinates": [
          -1.9164446,
          53.3331397
        ]
      },
      "id": "node/26419893"
    },
    {
      "type": "Feature",
      "properties": {
        "@id": "node/26419954",
        "is_in:county": "Derbyshire",
        "is_in:municipality": "High Peak",
        "name": "New Mills",
        "place": "town",
        "population": "12291",
        "population:date": "2011",
        "source:name": "local knowledge",
        "source:population": "wikipedia",
        "wikidata": "Q2569086",
        "wikipedia": "en:New Mills"
      },
      "geometry": {
        "type": "Point",
        "coordinates": [
          -2.0012794,
          53.365432
        ]
      },
      "id": "node/26419954"
    },
    {
      "type": "Feature",
      "properties": {
        "@id": "node/26420029",
        "name": "Whaley Bridge",
        "place": "town",
        "population": "6455",
        "population:date": "2011",
        "source:name": "local knowledge",
        "source:population": "wikipedia",
        "wikidata": "Q652597",
        "wikipedia": "en:Whaley Bridge"
      },
      "geometry": {
        "type": "Point",
        "coordinates": [
          -1.9834471,
          53.3300532
        ]
      },
      "id": "node/26420029"
    },
    {
      "type": "Feature",
      "properties": {
        "@id": "node/26420069",
        "is_in": "High Peak,Derbyshire",
        "name": "Taxal",
        "place": "hamlet",
        "source:name": "local knowledge"
      },
      "geometry": {
        "type": "Point",
        "coordinates": [
          -1.9916771,
          53.3150596
        ]
      },
      "id": "node/26420069"
    },
    {
      "type": "Feature",
      "properties": {
        "@id": "node/26420091",
        "is_in": "High Peak,Derbyshire",
        "name": "Chinley",
        "place": "village",
        "source:name": "local knowledge"
      },
      "geometry": {
        "type": "Point",
        "coordinates": [
          -1.9427892,
          53.3395448
        ]
      },
      "id": "node/26420091"
    },
    {
      "type": "Feature",
      "properties": {
        "@id": "node/26420461",
        "name": "Bamford",
        "place": "village",
        "source:name": "local knowledge",
        "wikidata": "Q1797598",
        "wikipedia": "en:Bamford"
      },
      "geometry": {
        "type": "Point",
        "coordinates": [
          -1.6885072,
          53.3475694
        ]
      },
      "id": "node/26420461"
    },
    {
      "type": "Feature",
      "properties": {
        "@id": "node/26420604",
        "name": "Furness Vale",
        "place": "suburb",
        "source:name": "local knowledge",
        "wikidata": "Q5509665"
      },
      "geometry": {
        "type": "Point",
        "coordinates": [
          -1.9889036,
          53.3468295
        ]
      },
      "id": "node/26420604"
    },
    {
      "type": "Feature",
      "properties": {
        "@id": "node/26420709",
        "name": "Whitehough",
        "place": "village",
        "source:name": "local knowledge"
      },
      "geometry": {
        "type": "Point",
        "coordinates": [
          -1.9436608,
          53.3357114
        ]
      },
      "id": "node/26420709"
    },
    {
      "type": "Feature",
      "properties": {
        "@id": "node/26420920",
        "is_in": "Whaley Bridge,High Peak,Derbyshire",
        "name": "Horwich End",
        "place": "suburb",
        "source:name": "local knowledge"
      },
      "geometry": {
        "type": "Point",
        "coordinates": [
          -1.9874288,
          53.3232145
        ]
      },
      "id": "node/26420920"
    },
    {
      "type": "Feature",
      "properties": {
        "@id": "node/26420958",
        "is_in": "High Peak,Derbyshire",
        "name": "Wash",
        "place": "village",
        "source:name": "local knowledge"
      },
      "geometry": {
        "type": "Point",
        "coordinates": [
          -1.9089292,
          53.3360341
        ]
      },
      "id": "node/26420958"
    },
    {
      "type": "Feature",
      "properties": {
        "@id": "node/26421231",
        "is_in": "High Peak,Derbyshire",
        "name": "Hope",
        "place": "village",
        "source:name": "local knowledge"
      },
      "geometry": {
        "type": "Point",
        "coordinates": [
          -1.7437121,
          53.3488703
        ]
      },
      "id": "node/26421231"
    },
    {
      "type": "Feature",
      "properties": {
        "@id": "node/26421462",
        "is_in:county": "Derbyshire",
        "is_in:region": "High Peak",
        "name": "Sparrowpit",
        "place": "hamlet",
        "source:name": "local knowledge",
        "wikidata": "Q7573778"
      },
      "geometry": {
        "type": "Point",
        "coordinates": [
          -1.8661737,
          53.3228858
        ]
      },
      "id": "node/26421462"
    },
    {
      "type": "Feature",
      "properties": {
        "@id": "node/26984344",
        "is_in:county": "Derbyshire",
        "is_in:district": "Erewash",
        "name": "Breaston",
        "place": "village",
        "wikidata": "Q3317477",
        "wikipedia": "en:Breaston"
      },
      "geometry": {
        "type": "Point",
        "coordinates": [
          -1.3189508,
          52.8980803
        ]
      },
      "id": "node/26984344"
    },
    {
      "type": "Feature",
      "properties": {
        "@id": "node/26984574",
        "is_in:county": "Derbyshire",
        "is_in:district": "Erewash",
        "name": "Sandiacre",
        "place": "town",
        "wikidata": "Q955868",
        "wikipedia": "en:Sandiacre"
      },
      "geometry": {
        "type": "Point",
        "coordinates": [
          -1.2892153,
          52.9232778
        ]
      },
      "id": "node/26984574"
    },
    {
      "type": "Feature",
      "properties": {
        "@id": "node/26984576",
        "is_in:county": "Derbyshire",
        "is_in:district": "Erewash",
        "name": "Stanton by Dale",
        "place": "village",
        "wikidata": "Q2880792",
        "wikipedia": "en:Stanton by Dale"
      },
      "geometry": {
        "type": "Point",
        "coordinates": [
          -1.3097253,
          52.9380183
        ]
      },
      "id": "node/26984576"
    },
    {
      "type": "Feature",
      "properties": {
        "@id": "node/26984577",
        "is_in:county": "Derbyshire",
        "is_in:district": "Erewash",
        "loc_name": "Ilson",
        "name": "Ilkeston",
        "place": "town",
        "population": "38640",
        "wikidata": "Q2061067",
        "wikipedia": "en:Ilkeston"
      },
      "geometry": {
        "type": "Point",
        "coordinates": [
          -1.307171,
          52.9710869
        ]
      },
      "id": "node/26984577"
    },
    {
      "type": "Feature",
      "properties": {
        "@id": "node/27011150",
        "is_in:county": "Derbyshire",
        "is_in:district": "South Derbyshire",
        "name": "Melbourne",
        "place": "village",
        "wikidata": "Q2494484",
        "wikipedia": "en:Melbourne, Derbyshire"
      },
      "geometry": {
        "type": "Point",
        "coordinates": [
          -1.4283564,
          52.8228134
        ]
      },
      "id": "node/27011150"
    },
    {
      "type": "Feature",
      "properties": {
        "@id": "node/27044141",
        "created_by": "JOSM",
        "is_in:county": "Derbyshire",
        "name": "Overseal",
        "place": "village"
      },
      "geometry": {
        "type": "Point",
        "coordinates": [
          -1.5682284,
          52.7350819
        ]
      },
      "id": "node/27044141"
    },
    {
      "type": "Feature",
      "properties": {
        "@id": "node/27044142",
        "is_in:country": "UK",
        "is_in:county": "Derbyshire",
        "name": "Netherseal",
        "place": "village",
        "wikidata": "Q2637795",
        "wikipedia": "en:Netherseal"
      },
      "geometry": {
        "type": "Point",
        "coordinates": [
          -1.5757035,
          52.7136479
        ]
      },
      "id": "node/27044142"
    },
    {
      "type": "Feature",
      "properties": {
        "@id": "node/27208887",
        "is_in:county": "Derbyshire",
        "is_in:district": "Erewash",
        "name": "Draycott",
        "place": "village",
        "wikidata": "Q5306084",
        "wikipedia": "en:Draycott, Derbyshire"
      },
      "geometry": {
        "type": "Point",
        "coordinates": [
          -1.3426249,
          52.8940722
        ]
      },
      "id": "node/27208887"
    },
    {
      "type": "Feature",
      "properties": {
        "@id": "node/27281874",
        "name": "Whatstandwell",
        "place": "village",
        "wikidata": "Q2468622",
        "wikipedia": "en:Whatstandwell"
      },
      "geometry": {
        "type": "Point",
        "coordinates": [
          -1.4942124,
          53.0788642
        ]
      },
      "id": "node/27281874"
    },
    {
      "type": "Feature",
      "properties": {
        "@id": "node/27281889",
        "created_by": "JOSM",
        "name": "Cromford",
        "place": "village",
        "wikidata": "Q1000915"
      },
      "geometry": {
        "type": "Point",
        "coordinates": [
          -1.5600787,
          53.1087194
        ]
      },
      "id": "node/27281889"
    },
    {
      "type": "Feature",
      "properties": {
        "@id": "node/27284451",
        "alt_name": "Crowdicote",
        "is_in": "Derbyshire, England, UK",
        "name": "Crowdecote",
        "place": "village",
        "source:alt_name": "OS_OpenData_StreetView",
        "source:name": "sign",
        "wikidata": "Q4816780"
      },
      "geometry": {
        "type": "Point",
        "coordinates": [
          -1.8506112,
          53.1839159
        ]
      },
      "id": "node/27284451"
    },
    {
      "type": "Feature",
      "properties": {
        "@id": "node/27284974",
        "is_in": "Derbyshire, England, UK",
        "name": "Hartington",
        "place": "village",
        "wikidata": "Q1923249",
        "wikipedia": "en:Hartington, Derbyshire"
      },
      "geometry": {
        "type": "Point",
        "coordinates": [
          -1.8098893,
          53.1407795
        ]
      },
      "id": "node/27284974"
    },
    {
      "type": "Feature",
      "properties": {
        "@id": "node/27330623",
        "is_in:county": "Derbyshire",
        "is_in:district": "Bolsover",
        "name": "Clowne",
        "place": "town"
      },
      "geometry": {
        "type": "Point",
        "coordinates": [
          -1.2623326,
          53.276098
        ]
      },
      "id": "node/27330623"
    },
    {
      "type": "Feature",
      "properties": {
        "@id": "node/27330624",
        "is_in": "Derbyshire, England, UK",
        "name": "Whitwell",
        "place": "village",
        "wikidata": "Q2137106",
        "wikipedia": "en:Whitwell, Derbyshire"
      },
      "geometry": {
        "type": "Point",
        "coordinates": [
          -1.2101928,
          53.284984
        ]
      },
      "id": "node/27330624"
    },
    {
      "type": "Feature",
      "properties": {
        "@id": "node/27330625",
        "created_by": "Potlatch 0.9",
        "name": "Bolsover",
        "place": "town",
        "wikidata": "Q2130058"
      },
      "geometry": {
        "type": "Point",
        "coordinates": [
          -1.2912756,
          53.228666
        ]
      },
      "id": "node/27330625"
    },
    {
      "type": "Feature",
      "properties": {
        "@id": "node/27330626",
        "name": "Dronfield",
        "place": "town",
        "wikidata": "Q2499345",
        "wikipedia": "en:Dronfield"
      },
      "geometry": {
        "type": "Point",
        "coordinates": [
          -1.4752184,
          53.3019998
        ]
      },
      "id": "node/27330626"
    },
    {
      "type": "Feature",
      "properties": {
        "@id": "node/27354549",
        "is_in": "Derbyshire, England, UK",
        "name": "Owler Bar",
        "place": "hamlet",
        "wikidata": "Q7114878"
      },
      "geometry": {
        "type": "Point",
        "coordinates": [
          -1.5609805,
          53.2980579
        ]
      },
      "id": "node/27354549"
    },
    {
      "type": "Feature",
      "properties": {
        "@id": "node/28385464",
        "is_in": "Derbyshire, England, UK",
        "name": "Wingerworth",
        "place": "village",
        "wikidata": "Q1860823",
        "wikipedia": "en:Wingerworth"
      },
      "geometry": {
        "type": "Point",
        "coordinates": [
          -1.4347385,
          53.2032155
        ]
      },
      "id": "node/28385464"
    },
    {
      "type": "Feature",
      "properties": {
        "@id": "node/29133501",
        "created_by": "Potlatch 0.10b",
        "name": "Barber Booth",
        "place": "hamlet",
        "source:name": "local knowledge",
        "wikidata": "Q104708148"
      },
      "geometry": {
        "type": "Point",
        "coordinates": [
          -1.8311532,
          53.3595739
        ]
      },
      "id": "node/29133501"
    },
    {
      "type": "Feature",
      "properties": {
        "@id": "node/29292250",
        "alt_name": "Middleton by Youlgreave",
        "name": "Middleton by Youlgrave",
        "place": "village",
        "source": "npe",
        "source:alt_name": "local_knowledge;widespread_usage;village_sign",
        "wikidata": "Q11779582",
        "wikipedia": "en:Middleton-by-Youlgreave"
      },
      "geometry": {
        "type": "Point",
        "coordinates": [
          -1.7094064,
          53.1657178
        ]
      },
      "id": "node/29292250"
    },
    {
      "type": "Feature",
      "properties": {
        "@id": "node/29292304",
        "alt_name": "Youlgreave",
        "is_in": "Derbyshire, England, UK",
        "name": "Youlgrave",
        "place": "village",
        "source:name": "Local Knowledge",
        "wikidata": "Q1822924"
      },
      "geometry": {
        "type": "Point",
        "coordinates": [
          -1.6859938,
          53.1754751
        ]
      },
      "id": "node/29292304"
    },
    {
      "type": "Feature",
      "properties": {
        "@id": "node/29292379",
        "created_by": "POI Editor",
        "name": "Alport",
        "place": "village",
        "source": "npe",
        "wikidata": "Q4735631"
      },
      "geometry": {
        "type": "Point",
        "coordinates": [
          -1.6711396,
          53.1780949
        ]
      },
      "id": "node/29292379"
    },
    {
      "type": "Feature",
      "properties": {
        "@id": "node/29292506",
        "is_in:country": "UK",
        "is_in:county": "Derbyshire",
        "name": "Birchover",
        "place": "village",
        "wikidata": "Q4915766"
      },
      "geometry": {
        "type": "Point",
        "coordinates": [
          -1.6444649,
          53.1559941
        ]
      },
      "id": "node/29292506"
    },
    {
      "type": "Feature",
      "properties": {
        "@id": "node/29348528",
        "is_in": "Derbyshire, England, UK",
        "name": "Kniveton",
        "place": "village",
        "wikidata": "Q2259565"
      },
      "geometry": {
        "type": "Point",
        "coordinates": [
          -1.6900064,
          53.0496353
        ]
      },
      "id": "node/29348528"
    },
    {
      "type": "Feature",
      "properties": {
        "@id": "node/29348549",
        "is_in": "Derbyshire, England, UK",
        "name": "Hognaston",
        "place": "village",
        "wikidata": "Q2295707"
      },
      "geometry": {
        "type": "Point",
        "coordinates": [
          -1.6509127,
          53.0522505
        ]
      },
      "id": "node/29348549"
    },
    {
      "type": "Feature",
      "properties": {
        "@id": "node/29348552",
        "is_in": "Derbyshire, England, UK",
        "name": "Idridgehay",
        "place": "village",
        "wikidata": "Q5989566"
      },
      "geometry": {
        "type": "Point",
        "coordinates": [
          -1.572739,
          53.0352344
        ]
      },
      "id": "node/29348552"
    },
    {
      "type": "Feature",
      "properties": {
        "@id": "node/29348555",
        "is_in:country": "UK",
        "is_in:county": "Derbyshire",
        "loc_name": "Biggin",
        "name": "Biggin by Hulland",
        "nat_name": "Biggin by Hulland",
        "place": "village",
        "wikidata": "Q2718225",
        "wikipedia:en": "Biggin by Hulland"
      },
      "geometry": {
        "type": "Point",
        "coordinates": [
          -1.6140286,
          53.0329993
        ]
      },
      "id": "node/29348555"
    },
    {
      "type": "Feature",
      "properties": {
        "@id": "node/29348557",
        "is_in:country": "UK",
        "is_in:county": "Derbyshire",
        "name": "Kirk Ireton",
        "place": "village",
        "wikidata": "Q2767573"
      },
      "geometry": {
        "type": "Point",
        "coordinates": [
          -1.6023673,
          53.0476917
        ]
      },
      "id": "node/29348557"
    },
    {
      "type": "Feature",
      "properties": {
        "@id": "node/29348560",
        "is_in:country": "UK",
        "is_in:county": "Derbyshire",
        "name": "Hillclifflane",
        "place": "hamlet"
      },
      "geometry": {
        "type": "Point",
        "coordinates": [
          -1.5628813,
          53.0239334
        ]
      },
      "id": "node/29348560"
    },
    {
      "type": "Feature",
      "properties": {
        "@id": "node/29348561",
        "is_in:country": "UK",
        "is_in:county": "Derbyshire",
        "name": "Turnditch",
        "place": "village",
        "wikidata": "Q2694857"
      },
      "geometry": {
        "type": "Point",
        "coordinates": [
          -1.5597556,
          53.0157117
        ]
      },
      "id": "node/29348561"
    },
    {
      "type": "Feature",
      "properties": {
        "@id": "node/29348659",
        "is_in:country": "UK",
        "is_in:county": "Derbyshire",
        "name": "Belper",
        "place": "town",
        "wikidata": "Q2080375",
        "wikipedia": "en:Belper"
      },
      "geometry": {
        "type": "Point",
        "coordinates": [
          -1.4817414,
          53.0229029
        ]
      },
      "id": "node/29348659"
    },
    {
      "type": "Feature",
      "properties": {
        "@id": "node/29348661",
        "is_in:country": "UK",
        "is_in:county": "Derbyshire",
        "name": "Milford",
        "place": "village",
        "wikidata": "Q6851692",
        "wikipedia": "en:Milford, Derbyshire"
      },
      "geometry": {
        "type": "Point",
        "coordinates": [
          -1.4807007,
          53.0027022
        ]
      },
      "id": "node/29348661"
    },
    {
      "type": "Feature",
      "properties": {
        "@id": "node/29348665",
        "is_in": "Derbyshire, England, UK",
        "name": "Holbrook",
        "place": "village",
        "wikidata": "Q2260257"
      },
      "geometry": {
        "type": "Point",
        "coordinates": [
          -1.4588781,
          52.9998136
        ]
      },
      "id": "node/29348665"
    },
    {
      "type": "Feature",
      "properties": {
        "@id": "node/29348667",
        "is_in": "Derbyshire, England, UK",
        "name": "Kilburn",
        "place": "village",
        "wikidata": "Q2004475",
        "wikipedia": "en:Kilburn, Derbyshire"
      },
      "geometry": {
        "type": "Point",
        "coordinates": [
          -1.4307009,
          53.006552
        ]
      },
      "id": "node/29348667"
    },
    {
      "type": "Feature",
      "properties": {
        "@id": "node/29348671",
        "is_in": "Derbyshire, England, UK",
        "name": "Heage",
        "place": "village",
        "wikidata": "Q5690152",
        "wikipedia": "en:Heage"
      },
      "geometry": {
        "type": "Point",
        "coordinates": [
          -1.4490922,
          53.0499158
        ]
      },
      "id": "node/29348671"
    },
    {
      "type": "Feature",
      "properties": {
        "@id": "node/29348674",
        "is_in": "Derbyshire, England, UK",
        "name": "Boothgate",
        "place": "village",
        "wikidata": "Q4943938"
      },
      "geometry": {
        "type": "Point",
        "coordinates": [
          -1.4480494,
          53.0387011
        ]
      },
      "id": "node/29348674"
    },
    {
      "type": "Feature",
      "properties": {
        "@id": "node/29348680",
        "is_in": "Derbyshire, England, UK",
        "name": "Shottlegate",
        "place": "village"
      },
      "geometry": {
        "type": "Point",
        "coordinates": [
          -1.5247337,
          53.0218766
        ]
      },
      "id": "node/29348680"
    },
    {
      "type": "Feature",
      "properties": {
        "@id": "node/29348685",
        "is_in:country": "UK",
        "is_in:county": "Derbyshire",
        "name": "Hazelwood",
        "place": "village",
        "wikidata": "Q2027708",
        "wikipedia": "en:Hazelwood, Derbyshire"
      },
      "geometry": {
        "type": "Point",
        "coordinates": [
          -1.5108494,
          53.0099229
        ]
      },
      "id": "node/29348685"
    },
    {
      "type": "Feature",
      "properties": {
        "@id": "node/29348689",
        "is_in:country": "UK",
        "is_in:county": "Derbyshire",
        "name": "Blackbrook",
        "place": "village",
        "wikidata": "Q4922627"
      },
      "geometry": {
        "type": "Point",
        "coordinates": [
          -1.5058778,
          53.027458
        ]
      },
      "id": "node/29348689"
    },
    {
      "type": "Feature",
      "properties": {
        "@id": "node/29350128",
        "is_in": "Derbyshire, England, UK",
        "name": "Denby",
        "place": "village",
        "wikidata": "Q2458566",
        "wikipedia": "en:Denby"
      },
      "geometry": {
        "type": "Point",
        "coordinates": [
          -1.4118336,
          53.0125703
        ]
      },
      "id": "node/29350128"
    },
    {
      "type": "Feature",
      "properties": {
        "@id": "node/29350129",
        "is_in": "Derbyshire, England, UK",
        "name": "Heanor",
        "place": "town",
        "wikidata": "Q1981105",
        "wikipedia": "en:Heanor"
      },
      "geometry": {
        "type": "Point",
        "coordinates": [
          -1.3574966,
          53.0145821
        ]
      },
      "id": "node/29350129"
    },
    {
      "type": "Feature",
      "properties": {
        "@id": "node/29350130",
        "is_in": "Derbyshire, England, UK",
        "name": "Ripley",
        "name:ru": "Рипли",
        "place": "town",
        "wikidata": "Q936514",
        "wikipedia": "en:Ripley, Derbyshire"
      },
      "geometry": {
        "type": "Point",
        "coordinates": [
          -1.4026311,
          53.0515177
        ]
      },
      "id": "node/29350130"
    },
    {
      "type": "Feature",
      "properties": {
        "@id": "node/29350131",
        "is_in": "Derbyshire, England, UK",
        "name": "Codnor",
        "place": "village",
        "wikidata": "Q2030273",
        "wikipedia": "en:Codnor"
      },
      "geometry": {
        "type": "Point",
        "coordinates": [
          -1.3765619,
          53.0425326
        ]
      },
      "id": "node/29350131"
    },
    {
      "type": "Feature",
      "properties": {
        "@id": "node/29350134",
        "is_in": "Derbyshire, England, UK",
        "name": "Langley Mill",
        "place": "town",
        "wikidata": "Q6486274",
        "wikipedia": "en:Langley Mill"
      },
      "geometry": {
        "type": "Point",
        "coordinates": [
          -1.3356727,
          53.0206084
        ]
      },
      "id": "node/29350134"
    },
    {
      "type": "Feature",
      "properties": {
        "@id": "node/29350168",
        "is_in": "Derbyshire, England, UK",
        "name": "Denby Common",
        "place": "hamlet"
      },
      "geometry": {
        "type": "Point",
        "coordinates": [
          -1.3888433,
          53.0214903
        ]
      },
      "id": "node/29350168"
    },
    {
      "type": "Feature",
      "properties": {
        "@id": "node/29350196",
        "is_in": "Derbyshire, England, UK",
        "is_in:county": "Derbyshire",
        "name": "Marlpool",
        "place": "village"
      },
      "geometry": {
        "type": "Point",
        "coordinates": [
          -1.3448154,
          53.0064339
        ]
      },
      "id": "node/29350196"
    },
    {
      "type": "Feature",
      "properties": {
        "@id": "node/29350200",
        "is_in": "Derbyshire, England, UK",
        "name": "Loscoe",
        "place": "village",
        "wikidata": "Q6683509",
        "wikipedia": "en:Loscoe"
      },
      "geometry": {
        "type": "Point",
        "coordinates": [
          -1.3724113,
          53.0278998
        ]
      },
      "id": "node/29350200"
    },
    {
      "type": "Feature",
      "properties": {
        "@id": "node/29354349",
        "is_in": "Derbyshire, England, UK",
        "name": "Somercotes",
        "place": "village",
        "wikidata": "Q2591872"
      },
      "geometry": {
        "type": "Point",
        "coordinates": [
          -1.3700631,
          53.0804422
        ]
      },
      "id": "node/29354349"
    },
    {
      "type": "Feature",
      "properties": {
        "@id": "node/29354351",
        "is_in": "Derbyshire, England, UK",
        "name": "Swanwick",
        "place": "village",
        "wikidata": "Q652511",
        "wikipedia": "en:Swanwick, Derbyshire"
      },
      "geometry": {
        "type": "Point",
        "coordinates": [
          -1.3993137,
          53.0761731
        ]
      },
      "id": "node/29354351"
    },
    {
      "type": "Feature",
      "properties": {
        "@id": "node/29354353",
        "is_in": "Derbyshire, England, UK",
        "name": "Pentrich",
        "place": "village",
        "wikidata": "Q2013976",
        "wikipedia": "en:Pentrich"
      },
      "geometry": {
        "type": "Point",
        "coordinates": [
          -1.4199127,
          53.0681286
        ]
      },
      "id": "node/29354353"
    },
    {
      "type": "Feature",
      "properties": {
        "@id": "node/29354355",
        "is_in": "Derbyshire, England, UK",
        "name": "Fritchley",
        "place": "village",
        "wikidata": "Q5504744"
      },
      "geometry": {
        "type": "Point",
        "coordinates": [
          -1.4670844,
          53.0728936
        ]
      },
      "id": "node/29354355"
    },
    {
      "type": "Feature",
      "properties": {
        "@id": "node/29354356",
        "is_in": "Derbyshire, England, UK",
        "name": "Crich",
        "place": "village",
        "wikidata": "Q2377854",
        "wikipedia": "en:Crich"
      },
      "geometry": {
        "type": "Point",
        "coordinates": [
          -1.4792398,
          53.0859468
        ]
      },
      "id": "node/29354356"
    },
    {
      "type": "Feature",
      "properties": {
        "@id": "node/29354358",
        "is_in": "Derbyshire, England, UK",
        "name": "Nether Heage",
        "place": "village"
      },
      "geometry": {
        "type": "Point",
        "coordinates": [
          -1.462591,
          53.0531407
        ]
      },
      "id": "node/29354358"
    },
    {
      "type": "Feature",
      "properties": {
        "@id": "node/29354360",
        "is_in:country": "UK",
        "is_in:county": "Derbyshire",
        "name": "Wirksworth",
        "place": "town",
        "wikidata": "Q1612220",
        "wikipedia": "en:Wirksworth"
      },
      "geometry": {
        "type": "Point",
        "coordinates": [
          -1.5732089,
          53.0821999
        ]
      },
      "id": "node/29354360"
    },
    {
      "type": "Feature",
      "properties": {
        "@id": "node/29354362",
        "is_in:country": "UK",
        "is_in:county": "Derbyshire",
        "name": "Carsington",
        "place": "village",
        "population": "111",
        "wikidata": "Q2753082",
        "wikipedia": "en:Carsington"
      },
      "geometry": {
        "type": "Point",
        "coordinates": [
          -1.6254465,
          53.0769938
        ]
      },
      "id": "node/29354362"
    },
    {
      "type": "Feature",
      "properties": {
        "@id": "node/29354363",
        "name": "Callow",
        "place": "hamlet",
        "wikidata": "Q2178025"
      },
      "geometry": {
        "type": "Point",
        "coordinates": [
          -1.602324,
          53.0645637
        ]
      },
      "id": "node/29354363"
    },
    {
      "type": "Feature",
      "properties": {
        "@id": "node/29354365",
        "is_in": "Derbyshire, England, UK",
        "name": "Brassington",
        "place": "village",
        "wikidata": "Q4957952",
        "wikipedia": "en:Brassington"
      },
      "geometry": {
        "type": "Point",
        "coordinates": [
          -1.6573027,
          53.0857382
        ]
      },
      "id": "node/29354365"
    },
    {
      "type": "Feature",
      "properties": {
        "@id": "node/29354367",
        "is_in": "Derbyshire, England, UK",
        "name": "Bradbourne",
        "place": "village",
        "wikidata": "Q2198694",
        "wikipedia": "en:Bradbourne"
      },
      "geometry": {
        "type": "Point",
        "coordinates": [
          -1.688404,
          53.0708082
        ]
      },
      "id": "node/29354367"
    },
    {
      "type": "Feature",
      "properties": {
        "@id": "node/29354368",
        "is_in": "Derbyshire, England, UK",
        "name": "Parwich",
        "place": "village",
        "wikidata": "Q4944162",
        "wikipedia": "en:Parwich"
      },
      "geometry": {
        "type": "Point",
        "coordinates": [
          -1.7205462,
          53.0873024
        ]
      },
      "id": "node/29354368"
    },
    {
      "type": "Feature",
      "properties": {
        "@id": "node/29354370",
        "is_in": "Derbyshire, England, UK",
        "name": "Ballidon",
        "place": "village",
        "wikidata": "Q2786495",
        "wikipedia": "en:Ballidon"
      },
      "geometry": {
        "type": "Point",
        "coordinates": [
          -1.6980576,
          53.0886505
        ]
      },
      "id": "node/29354370"
    },
    {
      "type": "Feature",
      "properties": {
        "@id": "node/29355706",
        "is_in": "Derbyshire, England, UK",
        "name": "South Normanton",
        "place": "village",
        "wikidata": "Q569245",
        "wikipedia": "en:South Normanton"
      },
      "geometry": {
        "type": "Point",
        "coordinates": [
          -1.3392761,
          53.106412
        ]
      },
      "id": "node/29355706"
    },
    {
      "type": "Feature",
      "properties": {
        "@id": "node/29355707",
        "is_in": "Bolsover, Derbyshire, United Kingdom",
        "name": "Blackwell",
        "place": "village",
        "wikidata": "Q1920099",
        "wikipedia": "en:Blackwell, Bolsover"
      },
      "geometry": {
        "type": "Point",
        "coordinates": [
          -1.3537674,
          53.1198336
        ]
      },
      "id": "node/29355707"
    },
    {
      "type": "Feature",
      "properties": {
        "@id": "node/29355712",
        "is_in": "Derbyshire, England, UK",
        "name": "Morton",
        "place": "village",
        "wikidata": "Q3448389",
        "wikipedia": "en:Morton, Derbyshire"
      },
      "geometry": {
        "type": "Point",
        "coordinates": [
          -1.3915229,
          53.1361049
        ]
      },
      "id": "node/29355712"
    },
    {
      "type": "Feature",
      "properties": {
        "@id": "node/29355713",
        "is_in": "Derbyshire, England, UK",
        "name": "Westhouses",
        "place": "village",
        "wikidata": "Q9372201",
        "wikipedia": "en:Westhouses"
      },
      "geometry": {
        "type": "Point",
        "coordinates": [
          -1.3722896,
          53.1145494
        ]
      },
      "id": "node/29355713"
    },
    {
      "type": "Feature",
      "properties": {
        "@id": "node/29356480",
        "is_in": "Derbyshire, England, UK",
        "is_in:district": "North East Derbyshire",
        "name": "Clay Cross",
        "place": "town",
        "wikidata": "Q2553931",
        "wikipedia": "en:Clay cross"
      },
      "geometry": {
        "type": "Point",
        "coordinates": [
          -1.4132383,
          53.1652765
        ]
      },
      "id": "node/29356480"
    },
    {
      "type": "Feature",
      "properties": {
        "@id": "node/29356481",
        "is_in": "Derbyshire, England, UK",
        "name": "Stretton",
        "place": "village",
        "wikidata": "Q2005212",
        "wikipedia": "en:Stretton, Derbyshire"
      },
      "geometry": {
        "type": "Point",
        "coordinates": [
          -1.4146001,
          53.1469505
        ]
      },
      "id": "node/29356481"
    },
    {
      "type": "Feature",
      "properties": {
        "@id": "node/29356482",
        "is_in": "Derbyshire, England, UK",
        "name": "Wessington",
        "place": "village",
        "wikidata": "Q658183",
        "wikipedia": "en:Wessington"
      },
      "geometry": {
        "type": "Point",
        "coordinates": [
          -1.4466373,
          53.1159685
        ]
      },
      "id": "node/29356482"
    },
    {
      "type": "Feature",
      "properties": {
        "@id": "node/29356483",
        "is_in": "Derbyshire, England, UK",
        "name": "Brackenfield",
        "place": "village",
        "wikidata": "Q2115010",
        "wikipedia": "en:Brackenfield"
      },
      "geometry": {
        "type": "Point",
        "coordinates": [
          -1.453827,
          53.1261364
        ]
      },
      "id": "node/29356483"
    },
    {
      "type": "Feature",
      "properties": {
        "@id": "node/29356484",
        "is_in": "Derbyshire, England, UK",
        "name": "Higham",
        "place": "village",
        "wikidata": "Q9292172",
        "wikipedia": "en:Higham, Derbyshire"
      },
      "geometry": {
        "type": "Point",
        "coordinates": [
          -1.4168468,
          53.1266693
        ]
      },
      "id": "node/29356484"
    },
    {
      "type": "Feature",
      "properties": {
        "@id": "node/29356485",
        "is_in": "Derbyshire, England, UK",
        "name": "Shirland",
        "place": "village",
        "wikidata": "Q2266276",
        "wikipedia": "en:Shirland"
      },
      "geometry": {
        "type": "Point",
        "coordinates": [
          -1.407305,
          53.1258526
        ]
      },
      "id": "node/29356485"
    },
    {
      "type": "Feature",
      "properties": {
        "@id": "node/29356486",
        "is_in": "Derbyshire, England, UK",
        "name": "Stonebroom",
        "place": "village",
        "wikidata": "Q7619129",
        "wikipedia": "en:Stonebroom"
      },
      "geometry": {
        "type": "Point",
        "coordinates": [
          -1.3813968,
          53.1326059
        ]
      },
      "id": "node/29356486"
    },
    {
      "type": "Feature",
      "properties": {
        "@id": "node/29356719",
        "is_in": "Derbyshire, England, UK",
        "name": "Ashover Hay",
        "place": "village"
      },
      "geometry": {
        "type": "Point",
        "coordinates": [
          -1.4671003,
          53.1423312
        ]
      },
      "id": "node/29356719"
    },
    {
      "type": "Feature",
      "properties": {
        "@id": "node/29356720",
        "is_in": "Derbyshire, England, UK",
        "name": "Tansley",
        "place": "village",
        "wikidata": "Q1975933",
        "wikipedia": "en:Tansley"
      },
      "geometry": {
        "type": "Point",
        "coordinates": [
          -1.5182955,
          53.1317282
        ]
      },
      "id": "node/29356720"
    },
    {
      "type": "Feature",
      "properties": {
        "@id": "node/29356934",
        "is_in": "Derbyshire, England, UK",
        "name": "Matlock Bath",
        "place": "village",
        "wikidata": "Q738612",
        "wikipedia": "en:Matlock Bath"
      },
      "geometry": {
        "type": "Point",
        "coordinates": [
          -1.5618444,
          53.1206824
        ]
      },
      "id": "node/29356934"
    },
    {
      "type": "Feature",
      "properties": {
        "@id": "node/29356935",
        "is_in": "Derbyshire, England, UK",
        "name": "Bonsall",
        "place": "village",
        "wikidata": "Q1937494",
        "wikipedia": "en:Bonsall, Derbyshire"
      },
      "geometry": {
        "type": "Point",
        "coordinates": [
          -1.5848255,
          53.1214167
        ]
      },
      "id": "node/29356935"
    },
    {
      "type": "Feature",
      "properties": {
        "@id": "node/29357101",
        "is_in": "Derbyshire, England, UK",
        "name": "Darley Bridge",
        "place": "village"
      },
      "geometry": {
        "type": "Point",
        "coordinates": [
          -1.600038,
          53.1525499
        ]
      },
      "id": "node/29357101"
    },
    {
      "type": "Feature",
      "properties": {
        "@id": "node/29357102",
        "is_in": "Derbyshire, England, UK",
        "name": "Winster",
        "place": "village",
        "wikidata": "Q2001876",
        "wikipedia": "en:Winster"
      },
      "geometry": {
        "type": "Point",
        "coordinates": [
          -1.642726,
          53.1413487
        ]
      },
      "id": "node/29357102"
    },
    {
      "type": "Feature",
      "properties": {
        "@id": "node/29357103",
        "is_in": "Derbyshire, England, UK",
        "name": "Ible",
        "place": "hamlet",
        "wikidata": "Q2222062",
        "wikipedia": "en:Ible"
      },
      "geometry": {
        "type": "Point",
        "coordinates": [
          -1.6302326,
          53.1102577
        ]
      },
      "id": "node/29357103"
    },
    {
      "type": "Feature",
      "properties": {
        "@id": "node/29357104",
        "is_in": "Derbyshire, England, UK",
        "name": "Aldwark",
        "place": "village",
        "wikidata": "Q2043743",
        "wikipedia": "en:Aldwark, Derbyshire"
      },
      "geometry": {
        "type": "Point",
        "coordinates": [
          -1.6599571,
          53.1131333
        ]
      },
      "id": "node/29357104"
    },
    {
      "type": "Feature",
      "properties": {
        "@id": "node/29359051",
        "is_in": "Derbyshire, England, UK",
        "name": "Heathcote",
        "place": "village"
      },
      "geometry": {
        "type": "Point",
        "coordinates": [
          -1.7832087,
          53.1393233
        ]
      },
      "id": "node/29359051"
    },
    {
      "type": "Feature",
      "properties": {
        "@id": "node/29359052",
        "is_in:country": "UK",
        "is_in:county": "Derbyshire",
        "name": "Tideswell",
        "place": "village",
        "wikidata": "Q385978",
        "wikipedia": "en:Tideswell"
      },
      "geometry": {
        "type": "Point",
        "coordinates": [
          -1.7742077,
          53.2787857
        ]
      },
      "id": "node/29359052"
    },
    {
      "type": "Feature",
      "properties": {
        "@id": "node/29383452",
        "is_in": "Derbyshire, England, UK",
        "name": "Stainsby",
        "place": "village",
        "wikidata": "Q7597066",
        "wikipedia": "en:Stainsby"
      },
      "geometry": {
        "type": "Point",
        "coordinates": [
          -1.3276831,
          53.1839761
        ]
      },
      "id": "node/29383452"
    },
    {
      "type": "Feature",
      "properties": {
        "@id": "node/29383454",
        "is_in": "Derbyshire, England, UK",
        "name": "Hardstoft",
        "place": "village",
        "wikidata": "Q15058850"
      },
      "geometry": {
        "type": "Point",
        "coordinates": [
          -1.3431259,
          53.1623644
        ]
      },
      "id": "node/29383454"
    },
    {
      "type": "Feature",
      "properties": {
        "@id": "node/29383455",
        "is_in": "Derbyshire, England, UK",
        "name": "Glapwell",
        "place": "village",
        "wikidata": "Q2625957",
        "wikipedia": "en:Glapwell"
      },
      "geometry": {
        "type": "Point",
        "coordinates": [
          -1.2848432,
          53.1899979
        ]
      },
      "id": "node/29383455"
    },
    {
      "type": "Feature",
      "properties": {
        "@id": "node/29383456",
        "is_in": "Derbyshire, England, UK",
        "name": "Ault Hucknall",
        "place": "hamlet",
        "wikidata": "Q1817486",
        "wikipedia": "en:Ault Hucknall"
      },
      "geometry": {
        "type": "Point",
        "coordinates": [
          -1.3016244,
          53.1817826
        ]
      },
      "id": "node/29383456"
    },
    {
      "type": "Feature",
      "properties": {
        "@id": "node/29388675",
        "is_in": "Derbyshire, UK",
        "name": "New Tupton",
        "place": "village",
        "wikidata": "Q516340",
        "wikipedia": "en:Tupton"
      },
      "geometry": {
        "type": "Point",
        "coordinates": [
          -1.4118258,
          53.1905919
        ]
      },
      "id": "node/29388675"
    },
    {
      "type": "Feature",
      "properties": {
        "@id": "node/29388676",
        "is_in": "Derbyshire, UK",
        "name": "Old Tupton",
        "place": "village",
        "wikidata": "Q516340",
        "wikipedia": "en:Tupton"
      },
      "geometry": {
        "type": "Point",
        "coordinates": [
          -1.4173515,
          53.1829641
        ]
      },
      "id": "node/29388676"
    },
    {
      "type": "Feature",
      "properties": {
        "@id": "node/29389154",
        "name": "Heath",
        "place": "village",
        "wikidata": "Q5693403",
        "wikipedia": "en:Heath, Derbyshire"
      },
      "geometry": {
        "type": "Point",
        "coordinates": [
          -1.332536,
          53.1967213
        ]
      },
      "id": "node/29389154"
    },
    {
      "type": "Feature",
      "properties": {
        "@id": "node/29389157",
        "is_in": "Derbyshire, England, UK",
        "name": "North Wingfield",
        "place": "village",
        "wikidata": "Q2006570",
        "wikipedia": "en:North Wingfield"
      },
      "geometry": {
        "type": "Point",
        "coordinates": [
          -1.387761,
          53.1806848
        ]
      },
      "id": "node/29389157"
    },
    {
      "type": "Feature",
      "properties": {
        "@id": "node/29389161",
        "is_in": "Derbyshire, England, UK",
        "name": "Temple Normanton",
        "place": "village",
        "wikidata": "Q3084392",
        "wikipedia": "en:Temple Normanton"
      },
      "geometry": {
        "type": "Point",
        "coordinates": [
          -1.37444,
          53.2040976
        ]
      },
      "id": "node/29389161"
    },
    {
      "type": "Feature",
      "properties": {
        "@id": "node/29389162",
        "is_in": "Derbyshire, England, UK",
        "name": "Holmewood",
        "place": "village",
        "wikidata": "Q5883717",
        "wikipedia": "en:Holmewood"
      },
      "geometry": {
        "type": "Point",
        "coordinates": [
          -1.3533857,
          53.1894454
        ]
      },
      "id": "node/29389162"
    },
    {
      "type": "Feature",
      "properties": {
        "@id": "node/29389166",
        "is_in": "Derbyshire, England, UK",
        "name": "Grassmoor",
        "place": "village",
        "wikidata": "Q690602",
        "wikipedia": "en:Grassmoor"
      },
      "geometry": {
        "type": "Point",
        "coordinates": [
          -1.3950087,
          53.1989492
        ]
      },
      "id": "node/29389166"
    },
    {
      "type": "Feature",
      "properties": {
        "@id": "node/29389167",
        "is_in": "Derbyshire, England, UK",
        "name": "Ashover",
        "place": "village",
        "wikidata": "Q2315005",
        "wikipedia": "en:Ashover"
      },
      "geometry": {
        "type": "Point",
        "coordinates": [
          -1.4794232,
          53.1639462
        ]
      },
      "id": "node/29389167"
    },
    {
      "type": "Feature",
      "properties": {
        "@id": "node/29389170",
        "is_in": "Derbyshire, England, UK",
        "name": "Alton",
        "place": "village",
        "wikidata": "Q602321",
        "wikipedia": "en:Alton, Derbyshire"
      },
      "geometry": {
        "type": "Point",
        "coordinates": [
          -1.4591723,
          53.173594
        ]
      },
      "id": "node/29389170"
    },
    {
      "type": "Feature",
      "properties": {
        "@id": "node/29389172",
        "is_in": "Derbyshire, England, UK",
        "name": "Hilltop",
        "place": "hamlet"
      },
      "geometry": {
        "type": "Point",
        "coordinates": [
          -1.4807053,
          53.1718079
        ]
      },
      "id": "node/29389172"
    },
    {
      "type": "Feature",
      "properties": {
        "@id": "node/29389181",
        "is_in": "Derbyshire, England, UK",
        "name": "Littlemoor",
        "place": "village",
        "wikidata": "Q6653016",
        "wikipedia": "en:Littlemoor, Derbyshire"
      },
      "geometry": {
        "type": "Point",
        "coordinates": [
          -1.4588525,
          53.1622209
        ]
      },
      "id": "node/29389181"
    },
    {
      "type": "Feature",
      "properties": {
        "@id": "node/29389184",
        "is_in": "Derbyshire, England, UK",
        "name": "Kelstedge",
        "place": "village",
        "wikidata": "Q89402621"
      },
      "geometry": {
        "type": "Point",
        "coordinates": [
          -1.494345,
          53.1703357
        ]
      },
      "id": "node/29389184"
    },
    {
      "type": "Feature",
      "properties": {
        "@id": "node/29389187",
        "is_in": "Derbyshire, England, UK",
        "is_in:county": "Derbyshire",
        "name": "Beeley",
        "place": "village",
        "wikidata": "Q4614981",
        "wikipedia": "en:Beeley"
      },
      "geometry": {
        "type": "Point",
        "coordinates": [
          -1.6036369,
          53.2042365
        ]
      },
      "id": "node/29389187"
    },
    {
      "type": "Feature",
      "properties": {
        "@id": "node/29389245",
        "is_in": "Derbyshire, England, UK",
        "name": "Darley Hillside",
        "place": "village"
      },
      "geometry": {
        "type": "Point",
        "coordinates": [
          -1.5922957,
          53.1698885
        ]
      },
      "id": "node/29389245"
    },
    {
      "type": "Feature",
      "properties": {
        "@id": "node/29389247",
        "is_in": "Derbyshire, England, UK",
        "name": "Uppertown",
        "place": "village"
      },
      "geometry": {
        "type": "Point",
        "coordinates": [
          -1.5185396,
          53.1815151
        ]
      },
      "id": "node/29389247"
    },
    {
      "type": "Feature",
      "properties": {
        "@id": "node/29389249",
        "is_in": "Derbyshire, England, UK",
        "name": "Tinkersley",
        "place": "village"
      },
      "geometry": {
        "type": "Point",
        "coordinates": [
          -1.6054056,
          53.1827926
        ]
      },
      "id": "node/29389249"
    },
    {
      "type": "Feature",
      "properties": {
        "@id": "node/29389526",
        "is_in": "Derbyshire, England, UK",
        "name": "Rowsley",
        "place": "village",
        "wikidata": "Q3439544"
      },
      "geometry": {
        "type": "Point",
        "coordinates": [
          -1.6170264,
          53.1892187
        ]
      },
      "id": "node/29389526"
    },
    {
      "type": "Feature",
      "properties": {
        "@id": "node/29389527",
        "is_in": "Derbyshire, England, UK",
        "name": "Bakewell",
        "place": "town",
        "wikidata": "Q2462719",
        "wikipedia": "en:Bakewell"
      },
      "geometry": {
        "type": "Point",
        "coordinates": [
          -1.6758613,
          53.2148429
        ]
      },
      "id": "node/29389527"
    },
    {
      "type": "Feature",
      "properties": {
        "@id": "node/29390252",
        "is_in": "Derbyshire, England, UK",
        "name": "Pilsbury",
        "place": "hamlet",
        "wikidata": "Q7194510",
        "wikipedia": "en:Pilsbury"
      },
      "geometry": {
        "type": "Point",
        "coordinates": [
          -1.8255015,
          53.1679078
        ]
      },
      "id": "node/29390252"
    },
    {
      "type": "Feature",
      "properties": {
        "@id": "node/29390255",
        "is_in": "Derbyshire, England, UK",
        "name": "Earl Sterndale",
        "place": "village",
        "wikidata": "Q5326103",
        "wikipedia": "en:Earl Sterndale"
      },
      "geometry": {
        "type": "Point",
        "coordinates": [
          -1.8637319,
          53.1988348
        ]
      },
      "id": "node/29390255"
    },
    {
      "type": "Feature",
      "properties": {
        "@id": "node/29392324",
        "is_in": "Derbyshire, England, UK",
        "name": "Burbage",
        "place": "village",
        "wikidata": "Q4998141",
        "wikipedia": "en:Burbage, Derbyshire"
      },
      "geometry": {
        "type": "Point",
        "coordinates": [
          -1.9348536,
          53.2542946
        ]
      },
      "id": "node/29392324"
    },
    {
      "type": "Feature",
      "properties": {
        "@id": "node/29392325",
        "is_in": "Derbyshire, England, UK",
        "name": "Flagg",
        "place": "village",
        "wikidata": "Q2800210",
        "wikipedia": "en:Flagg"
      },
      "geometry": {
        "type": "Point",
        "coordinates": [
          -1.8002341,
          53.2137672
        ]
      },
      "id": "node/29392325"
    },
    {
      "type": "Feature",
      "properties": {
        "@id": "node/29392326",
        "is_in": "Derbyshire, England, UK",
        "name": "Chelmorton",
        "place": "village",
        "wikidata": "Q1953754",
        "wikipedia": "en:Chelmorton"
      },
      "geometry": {
        "type": "Point",
        "coordinates": [
          -1.8319564,
          53.227653
        ]
      },
      "id": "node/29392326"
    },
    {
      "type": "Feature",
      "properties": {
        "@id": "node/29392327",
        "is_in:country": "UK",
        "is_in:county": "Derbyshire",
        "name": "Blackwell",
        "place": "village",
        "wikidata": "Q4423482",
        "wikipedia": "en:Blackwell in the Peak"
      },
      "geometry": {
        "type": "Point",
        "coordinates": [
          -1.8114303,
          53.245602
        ]
      },
      "id": "node/29392327"
    },
    {
      "type": "Feature",
      "properties": {
        "@id": "node/29392328",
        "is_in": "Derbyshire, England, UK",
        "name": "Wormhill",
        "place": "village"
      },
      "geometry": {
        "type": "Point",
        "coordinates": [
          -1.8161883,
          53.2646392
        ]
      },
      "id": "node/29392328"
    },
    {
      "type": "Feature",
      "properties": {
        "@id": "node/29392329",
        "is_in": "Derbyshire, England, UK",
        "name": "Priestcliffe",
        "place": "village",
        "wikidata": "Q118315157"
      },
      "geometry": {
        "type": "Point",
        "coordinates": [
          -1.7937161,
          53.2449802
        ]
      },
      "id": "node/29392329"
    },
    {
      "type": "Feature",
      "properties": {
        "@id": "node/29392330",
        "is_in": "Derbyshire, England, UK",
        "name": "Tunstead",
        "place": "village",
        "wikidata": "Q7853380",
        "wikipedia": "en:Tunstead, Derbyshire"
      },
      "geometry": {
        "type": "Point",
        "coordinates": [
          -1.8380875,
          53.2716746
        ]
      },
      "id": "node/29392330"
    },
    {
      "type": "Feature",
      "properties": {
        "@id": "node/29392331",
        "is_in": "Derbyshire, England, UK",
        "name": "Great Longstone",
        "place": "village",
        "wikidata": "Q3155262",
        "wikipedia": "en:Great Longstone"
      },
      "geometry": {
        "type": "Point",
        "coordinates": [
          -1.7029349,
          53.2433688
        ]
      },
      "id": "node/29392331"
    },
    {
      "type": "Feature",
      "properties": {
        "@id": "node/29392332",
        "is_in": "Derbyshire, England, UK",
        "name": "Little Longstone",
        "place": "village",
        "wikidata": "Q2313785"
      },
      "geometry": {
        "type": "Point",
        "coordinates": [
          -1.7181296,
          53.2421723
        ]
      },
      "id": "node/29392332"
    },
    {
      "type": "Feature",
      "properties": {
        "@id": "node/29392333",
        "name": "Wardlow",
        "place": "village",
        "wikidata": "Q966561"
      },
      "geometry": {
        "type": "Point",
        "coordinates": [
          -1.7302587,
          53.2686455
        ]
      },
      "id": "node/29392333"
    },
    {
      "type": "Feature",
      "properties": {
        "@id": "node/29392334",
        "is_in": "Derbyshire, England, UK",
        "name": "Taddington",
        "place": "village",
        "wikidata": "Q1811987",
        "wikipedia": "en:Taddington"
      },
      "geometry": {
        "type": "Point",
        "coordinates": [
          -1.7875823,
          53.2362068
        ]
      },
      "id": "node/29392334"
    },
    {
      "type": "Feature",
      "properties": {
        "@id": "node/29392335",
        "check_date": "2024-04-02",
        "is_in": "Derbyshire, England, UK",
        "name": "Ashford in the Water",
        "place": "village",
        "wikidata": "Q2221409",
        "wikipedia": "en:Ashford-in-the-Water"
      },
      "geometry": {
        "type": "Point",
        "coordinates": [
          -1.7100035,
          53.2248621
        ]
      },
      "id": "node/29392335"
    },
    {
      "type": "Feature",
      "properties": {
        "@id": "node/29392336",
        "is_in": "Derbyshire, England, UK",
        "name": "Sheldon",
        "place": "hamlet",
        "postal_code": "DE45 1QS",
        "wikidata": "Q2290148"
      },
      "geometry": {
        "type": "Point",
        "coordinates": [
          -1.7396063,
          53.2159289
        ]
      },
      "id": "node/29392336"
    },
    {
      "type": "Feature",
      "properties": {
        "@id": "node/29392337",
        "name": "Rowland",
        "place": "village",
        "wikidata": "Q2799321"
      },
      "geometry": {
        "type": "Point",
        "coordinates": [
          -1.6820089,
          53.2491909
        ]
      },
      "id": "node/29392337"
    },
    {
      "type": "Feature",
      "properties": {
        "@id": "node/29392647",
        "is_in": "Derbyshire, England, UK",
        "name": "Hassop",
        "place": "village",
        "wikidata": "Q2625516",
        "wikipedia": "en:Hassop"
      },
      "geometry": {
        "type": "Point",
        "coordinates": [
          -1.6653412,
          53.2479586
        ]
      },
      "id": "node/29392647"
    },
    {
      "type": "Feature",
      "properties": {
        "@id": "node/29392648",
        "is_in": "Derbyshire, England, UK",
        "name": "Pilsley",
        "place": "village",
        "wikidata": "Q2010899",
        "wikipedia": "en:Pilsley, Derbyshire Dales"
      },
      "geometry": {
        "type": "Point",
        "coordinates": [
          -1.6414898,
          53.235711
        ]
      },
      "id": "node/29392648"
    },
    {
      "type": "Feature",
      "properties": {
        "@id": "node/29392649",
        "is_in": "Derbyshire, England, UK",
        "name": "Edensor",
        "place": "village",
        "wikidata": "Q2578787",
        "wikipedia": "en:Edensor"
      },
      "geometry": {
        "type": "Point",
        "coordinates": [
          -1.6273614,
          53.225339
        ]
      },
      "id": "node/29392649"
    },
    {
      "type": "Feature",
      "properties": {
        "@id": "node/29392650",
        "is_in": "Derbyshire, England, UK",
        "name": "Baslow",
        "place": "village",
        "wikidata": "Q4867787",
        "wikipedia": "en:Baslow"
      },
      "geometry": {
        "type": "Point",
        "coordinates": [
          -1.6201639,
          53.2469579
        ]
      },
      "id": "node/29392650"
    },
    {
      "type": "Feature",
      "properties": {
        "@id": "node/29392651",
        "is_in": "Derbyshire, England, UK",
        "name": "Curbar",
        "place": "village",
        "wikidata": "Q2744982",
        "wikipedia": "en:Curbar"
      },
      "geometry": {
        "type": "Point",
        "coordinates": [
          -1.6253621,
          53.2684064
        ]
      },
      "id": "node/29392651"
    },
    {
      "type": "Feature",
      "properties": {
        "@id": "node/29392652",
        "is_in": "Derbyshire, England, UK",
        "name": "Calver",
        "place": "village",
        "wikidata": "Q2073921",
        "wikipedia": "en:Calver"
      },
      "geometry": {
        "type": "Point",
        "coordinates": [
          -1.6414898,
          53.2684861
        ]
      },
      "id": "node/29392652"
    },
    {
      "type": "Feature",
      "properties": {
        "@id": "node/29392653",
        "is_in": "Derbyshire, England, UK",
        "name": "Robin Hood",
        "place": "hamlet"
      },
      "geometry": {
        "type": "Point",
        "coordinates": [
          -1.5814828,
          53.2457846
        ]
      },
      "id": "node/29392653"
    },
    {
      "type": "Feature",
      "properties": {
        "@id": "node/29393207",
        "is_in": "Derbyshire, England, UK",
        "name": "Walton",
        "place": "suburb",
        "wikidata": "Q7966697",
        "wikipedia": "en:Walton, Chesterfield"
      },
      "geometry": {
        "type": "Point",
        "coordinates": [
          -1.4613069,
          53.2247987
        ]
      },
      "id": "node/29393207"
    },
    {
      "type": "Feature",
      "properties": {
        "@id": "node/29393208",
        "is_in": "Derbyshire, England, UK",
        "name": "Nether Loads",
        "place": "hamlet"
      },
      "geometry": {
        "type": "Point",
        "coordinates": [
          -1.5053284,
          53.2195916
        ]
      },
      "id": "node/29393208"
    },
    {
      "type": "Feature",
      "properties": {
        "@id": "node/29393209",
        "is_in": "Derbyshire, England, UK",
        "name": "Upper Loads",
        "place": "hamlet"
      },
      "geometry": {
        "type": "Point",
        "coordinates": [
          -1.5270608,
          53.2212155
        ]
      },
      "id": "node/29393209"
    },
    {
      "type": "Feature",
      "properties": {
        "@id": "node/29393210",
        "is_in": "Derbyshire, England, UK",
        "name": "Barlow",
        "place": "village",
        "wikidata": "Q1897929",
        "wikipedia": "en:Barlow, Derbyshire"
      },
      "geometry": {
        "type": "Point",
        "coordinates": [
          -1.4853497,
          53.2690905
        ]
      },
      "id": "node/29393210"
    },
    {
      "type": "Feature",
      "properties": {
        "@id": "node/29393211",
        "is_in": "Derbyshire, England, UK",
        "name": "Old Brampton",
        "place": "village",
        "wikidata": "Q7083519",
        "wikipedia": "en:Old Brampton"
      },
      "geometry": {
        "type": "Point",
        "coordinates": [
          -1.4986012,
          53.2425417
        ]
      },
      "id": "node/29393211"
    },
    {
      "type": "Feature",
      "properties": {
        "@id": "node/29393212",
        "is_in": "Derbyshire, England, UK",
        "name": "Freebirch",
        "place": "hamlet"
      },
      "geometry": {
        "type": "Point",
        "coordinates": [
          -1.539928,
          53.2517565
        ]
      },
      "id": "node/29393212"
    },
    {
      "type": "Feature",
      "properties": {
        "@id": "node/29397333",
        "created_by": "JOSM",
        "is_in": "Derbyshire, UK",
        "name": "Spitewinter",
        "place": "hamlet"
      },
      "geometry": {
        "type": "Point",
        "coordinates": [
          -1.489377,
          53.1947118
        ]
      },
      "id": "node/29397333"
    },
    {
      "type": "Feature",
      "properties": {
        "@id": "node/29400027",
        "fixme": "Is this correct?",
        "is_in": "Derbyshire, England, UK",
        "name": "Bolehill",
        "place": "village",
        "wikidata": "Q4939153",
        "wikipedia": "en:Bolehill, Derbyshire"
      },
      "geometry": {
        "type": "Point",
        "coordinates": [
          -1.5022586,
          53.2671069
        ]
      },
      "id": "node/29400027"
    },
    {
      "type": "Feature",
      "properties": {
        "@id": "node/29400028",
        "is_in": "Derbyshire, England, UK",
        "name": "Cutthorpe",
        "place": "village",
        "wikidata": "Q40887433"
      },
      "geometry": {
        "type": "Point",
        "coordinates": [
          -1.4831761,
          53.2573897
        ]
      },
      "id": "node/29400028"
    },
    {
      "type": "Feature",
      "properties": {
        "@id": "node/29400191",
        "is_in": "Derbyshire, England, UK",
        "name": "Brimington",
        "place": "village",
        "wikidata": "Q4968126",
        "wikipedia": "en:Brimington"
      },
      "geometry": {
        "type": "Point",
        "coordinates": [
          -1.3948498,
          53.2575075
        ]
      },
      "id": "node/29400191"
    },
    {
      "type": "Feature",
      "properties": {
        "@id": "node/29400193",
        "is_in": "Derbyshire, England, UK",
        "name": "Calow",
        "place": "village",
        "wikidata": "Q930697",
        "wikipedia": "en:Calow"
      },
      "geometry": {
        "type": "Point",
        "coordinates": [
          -1.384143,
          53.233897
        ]
      },
      "id": "node/29400193"
    },
    {
      "type": "Feature",
      "properties": {
        "@id": "node/29400195",
        "is_in": "Derbyshire, England, UK",
        "name": "Hasland",
        "place": "village",
        "wikidata": "Q5679271",
        "wikipedia": "en:Hasland"
      },
      "geometry": {
        "type": "Point",
        "coordinates": [
          -1.4093339,
          53.2192889
        ]
      },
      "id": "node/29400195"
    },
    {
      "type": "Feature",
      "properties": {
        "@id": "node/29400199",
        "name": "Inkersall",
        "place": "hamlet"
      },
      "geometry": {
        "type": "Point",
        "coordinates": [
          -1.3578329,
          53.2497928
        ]
      },
      "id": "node/29400199"
    },
    {
      "type": "Feature",
      "properties": {
        "@id": "node/29400202",
        "is_in": "Derbyshire, England, UK",
        "name": "Tapton",
        "place": "village",
        "wikidata": "Q7684839"
      },
      "geometry": {
        "type": "Point",
        "coordinates": [
          -1.4121277,
          53.2476365
        ]
      },
      "id": "node/29400202"
    },
    {
      "type": "Feature",
      "properties": {
        "@id": "node/29400205",
        "name": "Long Duckmanton",
        "place": "village",
        "wikidata": "Q641052"
      },
      "geometry": {
        "type": "Point",
        "coordinates": [
          -1.3390416,
          53.2368242
        ]
      },
      "id": "node/29400205"
    },
    {
      "type": "Feature",
      "properties": {
        "@id": "node/29400207",
        "name": "Norbriggs",
        "place": "village"
      },
      "geometry": {
        "type": "Point",
        "coordinates": [
          -1.3291188,
          53.2729915
        ]
      },
      "id": "node/29400207"
    },
    {
      "type": "Feature",
      "properties": {
        "@id": "node/29402265",
        "name": "Elmton",
        "place": "village",
        "wikidata": "Q5366928",
        "wikipedia": "en:Elmton"
      },
      "geometry": {
        "type": "Point",
        "coordinates": [
          -1.246456,
          53.2549151
        ]
      },
      "id": "node/29402265"
    },
    {
      "type": "Feature",
      "properties": {
        "@id": "node/29402269",
        "is_in": "Derbyshire, England, UK",
        "name": "Creswell",
        "place": "village",
        "wikidata": "Q5184679",
        "wikipedia": "en:Creswell, Derbyshire"
      },
      "geometry": {
        "type": "Point",
        "coordinates": [
          -1.2135527,
          53.2636863
        ]
      },
      "id": "node/29402269"
    },
    {
      "type": "Feature",
      "properties": {
        "@id": "node/29402270",
        "is_in": "Derbyshire, England, UK",
        "name": "Creswell Model Village",
        "place": "village",
        "wikidata": "Q5184687",
        "wikipedia": "en:Creswell Model Village"
      },
      "geometry": {
        "type": "Point",
        "coordinates": [
          -1.2208539,
          53.2603152
        ]
      },
      "id": "node/29402270"
    },
    {
      "type": "Feature",
      "properties": {
        "@id": "node/29402787",
        "is_in": "Derbyshire, England, UK",
        "name": "Upper Langwith",
        "place": "village"
      },
      "geometry": {
        "type": "Point",
        "coordinates": [
          -1.2254366,
          53.2182273
        ]
      },
      "id": "node/29402787"
    },
    {
      "type": "Feature",
      "properties": {
        "@id": "node/29403159",
        "created_by": "JOSM",
        "is_in": "Nottinghamshire, United Kingdom",
        "name": "Hodthorpe",
        "place": "village"
      },
      "geometry": {
        "type": "Point",
        "coordinates": [
          -1.1878429,
          53.2828187
        ]
      },
      "id": "node/29403159"
    },
    {
      "type": "Feature",
      "properties": {
        "@id": "node/29417271",
        "name": "Shuttlewood",
        "place": "village",
        "source": "npe",
        "wikidata": "Q7505722"
      },
      "geometry": {
        "type": "Point",
        "coordinates": [
          -1.300509,
          53.2507831
        ]
      },
      "id": "node/29417271"
    },
    {
      "type": "Feature",
      "properties": {
        "@id": "node/29417352",
        "is_in": "Derbyshire, England, UK",
        "name": "Barlborough",
        "place": "village",
        "source": "npe",
        "wikidata": "Q4425599",
        "wikipedia": "en:Barlborough"
      },
      "geometry": {
        "type": "Point",
        "coordinates": [
          -1.2876413,
          53.2891796
        ]
      },
      "id": "node/29417352"
    },
    {
      "type": "Feature",
      "properties": {
        "@id": "node/29417353",
        "is_in": "Derbyshire, England, UK",
        "name": "Spinkhill",
        "place": "village",
        "wikidata": "Q7577577"
      },
      "geometry": {
        "type": "Point",
        "coordinates": [
          -1.3170015,
          53.3019857
        ]
      },
      "id": "node/29417353"
    },
    {
      "type": "Feature",
      "properties": {
        "@id": "node/29417354",
        "is_in": "Derbyshire, England, UK",
        "name": "Renishaw",
        "note": "Moved S to where most of the village is these days.",
        "place": "village",
        "wikidata": "Q7313260",
        "wikipedia": "en:Renishaw, Derbyshire"
      },
      "geometry": {
        "type": "Point",
        "coordinates": [
          -1.3269578,
          53.2946503
        ]
      },
      "id": "node/29417354"
    },
    {
      "type": "Feature",
      "properties": {
        "@id": "node/29417355",
        "is_in": "Derbyshire, England, UK",
        "name": "Eckington",
        "place": "town",
        "source": "npe",
        "wikidata": "Q1612862",
        "wikipedia": "en:Eckington, Derbyshire"
      },
      "geometry": {
        "type": "Point",
        "coordinates": [
          -1.3557936,
          53.3089836
        ]
      },
      "id": "node/29417355"
    },
    {
      "type": "Feature",
      "properties": {
        "@id": "node/29417357",
        "name": "Barrow Hill",
        "place": "village",
        "wikidata": "Q4863879"
      },
      "geometry": {
        "type": "Point",
        "coordinates": [
          -1.3761454,
          53.2739492
        ]
      },
      "id": "node/29417357"
    },
    {
      "type": "Feature",
      "properties": {
        "@id": "node/29417382",
        "is_in": "Derbyshire, England, UK",
        "name": "Middle Handley",
        "place": "village",
        "wikidata": "Q30354761"
      },
      "geometry": {
        "type": "Point",
        "coordinates": [
          -1.3945913,
          53.2957211
        ]
      },
      "id": "node/29417382"
    },
    {
      "type": "Feature",
      "properties": {
        "@id": "node/29417383",
        "is_in": "Derbyshire, England, UK",
        "name": "Nether Handley",
        "place": "village"
      },
      "geometry": {
        "type": "Point",
        "coordinates": [
          -1.3891711,
          53.2893832
        ]
      },
      "id": "node/29417383"
    },
    {
      "type": "Feature",
      "properties": {
        "@id": "node/29417384",
        "is_in": "Derbyshire, England, UK",
        "name": "West Handley",
        "place": "village",
        "wikidata": "Q30354874"
      },
      "geometry": {
        "type": "Point",
        "coordinates": [
          -1.4036421,
          53.2942264
        ]
      },
      "id": "node/29417384"
    },
    {
      "type": "Feature",
      "properties": {
        "@id": "node/29417385",
        "is_in": "Derbyshire, England, UK",
        "name": "Hundall",
        "place": "village",
        "wikidata": "Q55239573"
      },
      "geometry": {
        "type": "Point",
        "coordinates": [
          -1.4212632,
          53.2911482
        ]
      },
      "id": "node/29417385"
    },
    {
      "type": "Feature",
      "properties": {
        "@id": "node/29417389",
        "is_in": "Derbyshire, England, UK",
        "name": "Unstone",
        "place": "village",
        "wikidata": "Q2460978",
        "wikipedia": "en:Unstone"
      },
      "geometry": {
        "type": "Point",
        "coordinates": [
          -1.4416131,
          53.2907058
        ]
      },
      "id": "node/29417389"
    },
    {
      "type": "Feature",
      "properties": {
        "@id": "node/29417390",
        "is_in": "Derbyshire, England, UK",
        "name": "Unstone Green",
        "place": "village",
        "source": "npe"
      },
      "geometry": {
        "type": "Point",
        "coordinates": [
          -1.4411816,
          53.2853955
        ]
      },
      "id": "node/29417390"
    },
    {
      "type": "Feature",
      "properties": {
        "@id": "node/29417538",
        "is_in": "Derbyshire, England, UK",
        "name": "Apperknowle",
        "place": "village",
        "wikidata": "Q4781034",
        "wikipedia": "en:Apperknowle"
      },
      "geometry": {
        "type": "Point",
        "coordinates": [
          -1.4278334,
          53.300107
        ]
      },
      "id": "node/29417538"
    },
    {
      "type": "Feature",
      "properties": {
        "@id": "node/29417625",
        "is_in:country": "UK",
        "is_in:county": "Derbyshire",
        "name": "Holmesfield",
        "place": "village"
      },
      "geometry": {
        "type": "Point",
        "coordinates": [
          -1.5186983,
          53.2949394
        ]
      },
      "id": "node/29417625"
    },
    {
      "type": "Feature",
      "properties": {
        "@id": "node/29417678",
        "is_in:country": "UK",
        "is_in:county": "Derbyshire",
        "name": "Eyam",
        "name:ru": "Им",
        "place": "village",
        "source": "npe",
        "wikidata": "Q1385667",
        "wikipedia": "en:Eyam"
      },
      "geometry": {
        "type": "Point",
        "coordinates": [
          -1.6725141,
          53.2837249
        ]
      },
      "id": "node/29417678"
    },
    {
      "type": "Feature",
      "properties": {
        "@id": "node/29417730",
        "is_in": "Derbyshire, England, UK",
        "name": "Stoney Middleton",
        "place": "village",
        "source": "npe",
        "wikidata": "Q2669529",
        "wikipedia": "en:Stoney Middleton"
      },
      "geometry": {
        "type": "Point",
        "coordinates": [
          -1.6595362,
          53.2756112
        ]
      },
      "id": "node/29417730"
    },
    {
      "type": "Feature",
      "properties": {
        "@id": "node/29417739",
        "is_in": "Derbyshire, England, UK",
        "name": "Grindleford",
        "place": "village",
        "source": "GPS;Local Knowledge",
        "wikidata": "Q749246"
      },
      "geometry": {
        "type": "Point",
        "coordinates": [
          -1.6363575,
          53.2958499
        ]
      },
      "id": "node/29417739"
    },
    {
      "type": "Feature",
      "properties": {
        "@id": "node/29417741",
        "is_in:country": "UK",
        "is_in:county": "Derbyshire",
        "name": "Foolow",
        "place": "village",
        "source": "npe",
        "wikidata": "Q2152166"
      },
      "geometry": {
        "type": "Point",
        "coordinates": [
          -1.7153127,
          53.2876012
        ]
      },
      "id": "node/29417741"
    },
    {
      "type": "Feature",
      "properties": {
        "@id": "node/29417742",
        "is_in:country": "UK",
        "is_in:county": "Derbyshire",
        "name": "Grindlow",
        "place": "village",
        "wikidata": "Q2466840"
      },
      "geometry": {
        "type": "Point",
        "coordinates": [
          -1.7289295,
          53.2942176
        ]
      },
      "id": "node/29417742"
    },
    {
      "type": "Feature",
      "properties": {
        "@id": "node/29417743",
        "is_in:country": "UK",
        "is_in:county": "Derbyshire",
        "name": "Great Hucklow",
        "place": "village",
        "source": "npe",
        "wikidata": "Q2314796",
        "wikipedia": "en:Great Hucklow"
      },
      "geometry": {
        "type": "Point",
        "coordinates": [
          -1.7343784,
          53.2975547
        ]
      },
      "id": "node/29417743"
    },
    {
      "type": "Feature",
      "properties": {
        "@id": "node/29417776",
        "is_in": "Derbyshire, England, UK",
        "name": "Wheston",
        "place": "village",
        "wikidata": "Q609177"
      },
      "geometry": {
        "type": "Point",
        "coordinates": [
          -1.8000692,
          53.2833419
        ]
      },
      "id": "node/29417776"
    },
    {
      "type": "Feature",
      "properties": {
        "@id": "node/29417782",
        "is_in:country": "UK",
        "is_in:county": "Derbyshire",
        "name": "Litton",
        "place": "village",
        "source": "npe",
        "wikidata": "Q2136130",
        "wikipedia": "en:Litton, Derbyshire"
      },
      "geometry": {
        "type": "Point",
        "coordinates": [
          -1.7546841,
          53.273005
        ]
      },
      "id": "node/29417782"
    },
    {
      "type": "Feature",
      "properties": {
        "@id": "node/29417835",
        "is_in": "Derbyshire, England, UK",
        "name": "Bradwell",
        "place": "village",
        "source": "npe",
        "wikidata": "Q2467800",
        "wikipedia": "en:Bradwell, Derbyshire"
      },
      "geometry": {
        "type": "Point",
        "coordinates": [
          -1.7411554,
          53.3273166
        ]
      },
      "id": "node/29417835"
    },
    {
      "type": "Feature",
      "properties": {
        "@id": "node/29417885",
        "is_in": "Derbyshire, England, UK",
        "name": "Thornhill",
        "place": "village",
        "source": "npe",
        "wikidata": "Q3070276",
        "wikipedia": "en:Thornhill, Derbyshire"
      },
      "geometry": {
        "type": "Point",
        "coordinates": [
          -1.7045012,
          53.3482527
        ]
      },
      "id": "node/29417885"
    },
    {
      "type": "Feature",
      "properties": {
        "@id": "node/29417886",
        "is_in": "Derbyshire, England, UK",
        "name": "Abney",
        "place": "village",
        "source": "npe",
        "wikidata": "Q2239361",
        "wikipedia": "en:Abney, Derbyshire"
      },
      "geometry": {
        "type": "Point",
        "coordinates": [
          -1.7047536,
          53.3151787
        ]
      },
      "id": "node/29417886"
    },
    {
      "type": "Feature",
      "properties": {
        "@id": "node/29418321",
        "name": "Killamarsh",
        "place": "town",
        "source": "npe",
        "wikidata": "Q2361686",
        "wikipedia": "en:Killamarsh"
      },
      "geometry": {
        "type": "Point",
        "coordinates": [
          -1.318428,
          53.3236263
        ]
      },
      "id": "node/29418321"
    },
    {
      "type": "Feature",
      "properties": {
        "@id": "node/29531128",
        "is_in:country": "UK",
        "is_in:county": "Derbyshire",
        "name": "Willington",
        "place": "village",
        "wikidata": "Q2168916",
        "wikipedia": "en:Willington, Derbyshire"
      },
      "geometry": {
        "type": "Point",
        "coordinates": [
          -1.5630055,
          52.853075
        ]
      },
      "id": "node/29531128"
    },
    {
      "type": "Feature",
      "properties": {
        "@id": "node/29531508",
        "is_in:county": "Derbyshire",
        "is_in:district": "South Derbyshire",
        "name": "Stanton by Bridge",
        "place": "village",
        "wikidata": "Q2783922"
      },
      "geometry": {
        "type": "Point",
        "coordinates": [
          -1.4539525,
          52.8418522
        ]
      },
      "id": "node/29531508"
    },
    {
      "type": "Feature",
      "properties": {
        "@id": "node/29535547",
        "is_in": "Derbyshire, England, UK",
        "name": "Press",
        "place": "village"
      },
      "geometry": {
        "type": "Point",
        "coordinates": [
          -1.4514214,
          53.1825142
        ]
      },
      "id": "node/29535547"
    },
    {
      "type": "Feature",
      "properties": {
        "@id": "node/29586302",
        "name": "Spital",
        "place": "suburb",
        "wikidata": "Q7578267",
        "wikipedia": "en:Spital, Derbyshire"
      },
      "geometry": {
        "type": "Point",
        "coordinates": [
          -1.4164493,
          53.2302013
        ]
      },
      "id": "node/29586302"
    },
    {
      "type": "Feature",
      "properties": {
        "@id": "node/29622195",
        "name": "Upper Booth",
        "place": "village"
      },
      "geometry": {
        "type": "Point",
        "coordinates": [
          -1.8465173,
          53.3644597
        ]
      },
      "id": "node/29622195"
    },
    {
      "type": "Feature",
      "properties": {
        "@id": "node/29622212",
        "name": "Hayfield",
        "place": "village",
        "wikidata": "Q2485852",
        "wikipedia": "en:Hayfield"
      },
      "geometry": {
        "type": "Point",
        "coordinates": [
          -1.9448857,
          53.3800207
        ]
      },
      "id": "node/29622212"
    },
    {
      "type": "Feature",
      "properties": {
        "@id": "node/29622781",
        "is_in": "Derbyshire, England, UK",
        "name": "Charlesworth",
        "name:ur": "چارلزورتھ",
        "place": "village",
        "wikidata": "Q2744140",
        "wikipedia": "en:Charlesworth, Derbyshire"
      },
      "geometry": {
        "type": "Point",
        "coordinates": [
          -1.9936617,
          53.4326009
        ]
      },
      "id": "node/29622781"
    },
    {
      "type": "Feature",
      "properties": {
        "@id": "node/29622784",
        "name": "Gamesley",
        "name:ur": "گیمزلی",
        "place": "village",
        "wikidata": "Q13128557",
        "wikipedia": "en:Gamesley"
      },
      "geometry": {
        "type": "Point",
        "coordinates": [
          -1.9866602,
          53.4469375
        ]
      },
      "id": "node/29622784"
    },
    {
      "type": "Feature",
      "properties": {
        "@id": "node/29622786",
        "name": "Woolley",
        "name:ur": "وُولی",
        "place": "village"
      },
      "geometry": {
        "type": "Point",
        "coordinates": [
          -1.9850281,
          53.4566476
        ]
      },
      "id": "node/29622786"
    },
    {
      "type": "Feature",
      "properties": {
        "@id": "node/29622788",
        "is_in": "Derbyshire, England, UK",
        "name": "Hadfield",
        "name:ur": "ہیڈفیلڈ",
        "place": "town",
        "wikidata": "Q1612071",
        "wikipedia": "en:Hadfield, Derbyshire"
      },
      "geometry": {
        "type": "Point",
        "coordinates": [
          -1.9701694,
          53.4643526
        ]
      },
      "id": "node/29622788"
    },
    {
      "type": "Feature",
      "properties": {
        "@id": "node/29622790",
        "is_in": "Derbyshire, England, UK",
        "name": "Padfield",
        "name:ur": "پیڈفیلڈ",
        "place": "village",
        "population": "2796",
        "wikidata": "Q7123718",
        "wikipedia": "en:Padfield"
      },
      "geometry": {
        "type": "Point",
        "coordinates": [
          -1.9569841,
          53.4625
        ]
      },
      "id": "node/29622790"
    },
    {
      "type": "Feature",
      "properties": {
        "@id": "node/29626740",
        "is_in:country": "UK",
        "is_in:county": "Derbyshire",
        "name": "Lullington",
        "place": "village"
      },
      "geometry": {
        "type": "Point",
        "coordinates": [
          -1.6310345,
          52.7138649
        ]
      },
      "id": "node/29626740"
    },
    {
      "type": "Feature",
      "properties": {
        "@id": "node/29627498",
        "name": "Spondon",
        "place": "suburb",
        "wikidata": "Q2397181",
        "wikipedia": "en:Spondon"
      },
      "geometry": {
        "type": "Point",
        "coordinates": [
          -1.4057218,
          52.9205217
        ]
      },
      "id": "node/29627498"
    },
    {
      "type": "Feature",
      "properties": {
        "@id": "node/29627499",
        "is_in:county": "Derbyshire",
        "name": "Breadsall",
        "place": "village",
        "wikidata": "Q4339605",
        "wikipedia": "en:Breadsall"
      },
      "geometry": {
        "type": "Point",
        "coordinates": [
          -1.4504293,
          52.9537226
        ]
      },
      "id": "node/29627499"
    },
    {
      "type": "Feature",
      "properties": {
        "@id": "node/29627501",
        "is_in:county": "Derbyshire",
        "name": "Dale Abbey",
        "place": "village",
        "wikidata": "Q2372980",
        "wikipedia": "en:Dale Abbey"
      },
      "geometry": {
        "type": "Point",
        "coordinates": [
          -1.3513094,
          52.9436571
        ]
      },
      "id": "node/29627501"
    },
    {
      "type": "Feature",
      "properties": {
        "@id": "node/29627504",
        "is_in:county": "Derbyshire",
        "is_in:district": "Erewash",
        "name": "West Hallam",
        "place": "village",
        "wikidata": "Q593594",
        "wikipedia": "en:West Hallam"
      },
      "geometry": {
        "type": "Point",
        "coordinates": [
          -1.362219,
          52.9712293
        ]
      },
      "id": "node/29627504"
    },
    {
      "type": "Feature",
      "properties": {
        "@id": "node/29627522",
        "is_in:county": "Derbyshire",
        "is_in:district": "Erewash",
        "name": "Kirk Hallam",
        "place": "village",
        "wikidata": "Q6415447",
        "wikipedia": "en:Kirk Hallam"
      },
      "geometry": {
        "type": "Point",
        "coordinates": [
          -1.3243977,
          52.9585412
        ]
      },
      "id": "node/29627522"
    },
    {
      "type": "Feature",
      "properties": {
        "@id": "node/29627523",
        "is_in:county": "Derbyshire",
        "is_in:district": "Erewash",
        "name": "Stanley",
        "place": "village",
        "wikidata": "Q7599396",
        "wikipedia": "en:Stanley, Derbyshire"
      },
      "geometry": {
        "type": "Point",
        "coordinates": [
          -1.3787464,
          52.9591741
        ]
      },
      "id": "node/29627523"
    },
    {
      "type": "Feature",
      "properties": {
        "@id": "node/29627525",
        "is_in:county": "Derbyshire",
        "is_in:district": "Erewash",
        "name": "Morley",
        "place": "village",
        "wikidata": "Q2649738",
        "wikipedia": "en:Morley, Derbyshire"
      },
      "geometry": {
        "type": "Point",
        "coordinates": [
          -1.4126857,
          52.9634536
        ]
      },
      "id": "node/29627525"
    },
    {
      "type": "Feature",
      "properties": {
        "@id": "node/29629694",
        "is_in:county": "Derbyshire",
        "name": "Mapperley",
        "place": "village",
        "wikidata": "Q2771045",
        "wikipedia": "en:Mapperley, Derbyshire"
      },
      "geometry": {
        "type": "Point",
        "coordinates": [
          -1.3537968,
          52.98235
        ]
      },
      "id": "node/29629694"
    },
    {
      "type": "Feature",
      "properties": {
        "@id": "node/29629695",
        "is_in:county": "Derbyshire",
        "name": "Horsley Woodhouse",
        "place": "village",
        "wikidata": "Q2404909",
        "wikipedia": "en:Horsley Woodhouse"
      },
      "geometry": {
        "type": "Point",
        "coordinates": [
          -1.4139602,
          53.0007305
        ]
      },
      "id": "node/29629695"
    },
    {
      "type": "Feature",
      "properties": {
        "@id": "node/29629697",
        "is_in:country": "UK",
        "is_in:county": "Derbyshire",
        "name": "Horsley",
        "place": "village",
        "wikidata": "Q2108018",
        "wikipedia": "en:Horsley, Derbyshire"
      },
      "geometry": {
        "type": "Point",
        "coordinates": [
          -1.4370079,
          52.996284
        ]
      },
      "id": "node/29629697"
    },
    {
      "type": "Feature",
      "properties": {
        "@id": "node/29629699",
        "is_in:county": "Derbyshire",
        "name": "Stanley Common",
        "place": "village",
        "wikidata": "Q7599533",
        "wikipedia": "en:Stanley Common"
      },
      "geometry": {
        "type": "Point",
        "coordinates": [
          -1.3844028,
          52.9766678
        ]
      },
      "id": "node/29629699"
    },
    {
      "type": "Feature",
      "properties": {
        "@id": "node/29629823",
        "is_in:county": "Derbyshire",
        "is_in:district": "Bolsover",
        "name": "Pinxton",
        "place": "village"
      },
      "geometry": {
        "type": "Point",
        "coordinates": [
          -1.3193755,
          53.0911225
        ]
      },
      "id": "node/29629823"
    },
    {
      "type": "Feature",
      "properties": {
        "@id": "node/29843334",
        "is_in:county": "Derbyshire",
        "name": "Smalley",
        "place": "village",
        "wikidata": "Q7543657",
        "wikipedia": "en:Smalley, Derbyshire"
      },
      "geometry": {
        "type": "Point",
        "coordinates": [
          -1.3927703,
          52.9975851
        ]
      },
      "id": "node/29843334"
    },
    {
      "type": "Feature",
      "properties": {
        "@id": "node/30000422",
        "alt_name": "Chisworth",
        "is_in": "High Peak, Derbyshire, England, UK",
        "name": "Higher Chisworth",
        "name:ur": "ہائر چز ورتھ",
        "place": "village",
        "source": "npe"
      },
      "geometry": {
        "type": "Point",
        "coordinates": [
          -2.0068844,
          53.4220191
        ]
      },
      "id": "node/30000422"
    },
    {
      "type": "Feature",
      "properties": {
        "@id": "node/30132968",
        "name": "Woolley Moor",
        "place": "village",
        "wikidata": "Q8033854",
        "wikipedia": "en:Woolley Moor"
      },
      "geometry": {
        "type": "Point",
        "coordinates": [
          -1.4514101,
          53.149202
        ]
      },
      "id": "node/30132968"
    },
    {
      "type": "Feature",
      "properties": {
        "@id": "node/30133199",
        "created_by": "Potlatch 0.4c",
        "is_in:county": "Derbyshire",
        "is_in:district": "South Derbyshire",
        "name": "Newhall",
        "place": "village",
        "wikidata": "Q11790921"
      },
      "geometry": {
        "type": "Point",
        "coordinates": [
          -1.5722883,
          52.7844582
        ]
      },
      "id": "node/30133199"
    },
    {
      "type": "Feature",
      "properties": {
        "@id": "node/30133200",
        "is_in:country": "UK",
        "is_in:county": "Derbyshire",
        "name": "Newton Solney",
        "place": "village",
        "wikidata": "Q2763526",
        "wikipedia": "en:Newton Solney"
      },
      "geometry": {
        "type": "Point",
        "coordinates": [
          -1.5839929,
          52.8282766
        ]
      },
      "id": "node/30133200"
    },
    {
      "type": "Feature",
      "properties": {
        "@id": "node/30133201",
        "is_in:country": "UK",
        "is_in:county": "Derbyshire",
        "name": "Repton",
        "place": "village",
        "wikidata": "Q1018787",
        "wikipedia": "en:Repton"
      },
      "geometry": {
        "type": "Point",
        "coordinates": [
          -1.5488245,
          52.839548
        ]
      },
      "id": "node/30133201"
    },
    {
      "type": "Feature",
      "properties": {
        "@id": "node/30133240",
        "is_in": "Derbyshire, England, UK",
        "name": "Hartshorne",
        "place": "village",
        "wikidata": "Q2158222",
        "wikipedia": "en:Hartshorne, Derbyshire"
      },
      "geometry": {
        "type": "Point",
        "coordinates": [
          -1.5208875,
          52.787661
        ]
      },
      "id": "node/30133240"
    },
    {
      "type": "Feature",
      "properties": {
        "@id": "node/30133629",
        "name": "Oakerthorpe",
        "place": "village",
        "wikidata": "Q7073841",
        "wikipedia": "en:Oakerthorpe"
      },
      "geometry": {
        "type": "Point",
        "coordinates": [
          -1.419601,
          53.0977211
        ]
      },
      "id": "node/30133629"
    },
    {
      "type": "Feature",
      "properties": {
        "@id": "node/30241135",
        "is_in:county": "Derbyshire",
        "is_in:district": "Bolsover",
        "name": "Shirebrook",
        "place": "town",
        "wikidata": "Q2345424",
        "wikipedia": "en:Shirebrook"
      },
      "geometry": {
        "type": "Point",
        "coordinates": [
          -1.2205319,
          53.2063042
        ]
      },
      "id": "node/30241135"
    },
    {
      "type": "Feature",
      "properties": {
        "@id": "node/30504466",
        "is_in": "Derbyshire, England, UK",
        "name": "Handley",
        "place": "village"
      },
      "geometry": {
        "type": "Point",
        "coordinates": [
          -1.4404694,
          53.152244
        ]
      },
      "id": "node/30504466"
    },
    {
      "type": "Feature",
      "properties": {
        "@id": "node/30812059",
        "is_in:country": "UK",
        "is_in:county": "Derbyshire",
        "name": "Dove Holes",
        "place": "village",
        "source:name": "dictaphone",
        "wikidata": "Q751183"
      },
      "geometry": {
        "type": "Point",
        "coordinates": [
          -1.8876758,
          53.3017676
        ]
      },
      "id": "node/30812059"
    },
    {
      "type": "Feature",
      "properties": {
        "@id": "node/33997249",
        "created_by": "Potlatch 0.10b",
        "name": "Pleasley",
        "place": "village"
      },
      "geometry": {
        "type": "Point",
        "coordinates": [
          -1.2493079,
          53.1748789
        ]
      },
      "id": "node/33997249"
    },
    {
      "type": "Feature",
      "properties": {
        "@id": "node/40694424",
        "is_in": "Derbyshire, England, UK",
        "name": "Ashbourne",
        "place": "town",
        "wikidata": "Q2190607",
        "wikipedia": "en:Ashbourne, Derbyshire"
      },
      "geometry": {
        "type": "Point",
        "coordinates": [
          -1.7342725,
          53.0173327
        ]
      },
      "id": "node/40694424"
    },
    {
      "type": "Feature",
      "properties": {
        "@id": "node/41100353",
        "name": "Low Leighton",
        "place": "suburb"
      },
      "geometry": {
        "type": "Point",
        "coordinates": [
          -1.9891555,
          53.3671365
        ]
      },
      "id": "node/41100353"
    },