{
  "type": "FeatureCollection",
  "generator": "overpass-turbo",
  "copyright": "The data included in this document is from www.openstreetmap.org. The data is made available under ODbL.",
  "timestamp": "2024-06-18T10:24:15Z",
  "features": [
    {
      "type": "Feature",
      "properties": {
        "@id": "node/10671639",
        "historic:official_name": "Colonia Domitiana Lindensium",
        "is_in:country": "United Kingdom",
        "is_in:country_code": "GB",
        "is_in:county": "Lincolnshire",
        "name": "Lincoln",
        "name:ast": "Lincoln, Inglaterra",
        "name:be": "Лінкальн",
        "name:en": "Lincoln",
        "name:he": "לינקולן",
        "name:hu": "Lincoln",
        "name:ko": "링컨",
        "name:lt": "Linkolnas",
        "name:mk": "Линколн",
        "name:ru": "Линкольн",
        "name:sr": "Линколн",
        "name:uk": "Лінкольн",
        "name:ur": "لِنکن",
        "official_name": "City of Lincoln",
        "old_name": "Lindum Colonia",
        "place": "city",
        "population": "97541",
        "source": "Bing",
        "wikidata": "Q180057",
        "wikipedia": "en:Lincoln, England"
      },
      "geometry": {
        "type": "Point",
        "coordinates": [
          -0.5404819,
          53.2293545
        ]
      },
      "id": "node/10671639"
    },
    {
      "type": "Feature",
      "properties": {
        "@id": "node/10671908",
        "is_in": "Lincolnshire, England, UK",
        "name": "Waddington",
        "place": "village",
        "population": "6112",
        "wikidata": "Q991481",
        "wikipedia": "en:Waddington, Lincolnshire"
      },
      "geometry": {
        "type": "Point",
        "coordinates": [
          -0.5390813,
          53.1672819
        ]
      },
      "id": "node/10671908"
    },
    {
      "type": "Feature",
      "properties": {
        "@id": "node/10672331",
        "is_in": "Lincolnshire, England, UK",
        "name": "Harmston",
        "place": "village"
      },
      "geometry": {
        "type": "Point",
        "coordinates": [
          -0.547871,
          53.1485656
        ]
      },
      "id": "node/10672331"
    },
    {
      "type": "Feature",
      "properties": {
        "@id": "node/12014296",
        "is_in": "Lincolnshire, England, UK",
        "name": "Coleby",
        "place": "village",
        "source": "GPS waypoint"
      },
      "geometry": {
        "type": "Point",
        "coordinates": [
          -0.5426358,
          53.1328743
        ]
      },
      "id": "node/12014296"
    },
    {
      "type": "Feature",
      "properties": {
        "@id": "node/12014300",
        "name": "Fulbeck",
        "place": "village",
        "source": "GPS waypoint"
      },
      "geometry": {
        "type": "Point",
        "coordinates": [
          -0.5874992,
          53.0417943
        ]
      },
      "id": "node/12014300"
    },
    {
      "type": "Feature",
      "properties": {
        "@id": "node/12014308",
        "is_in": "Lincolnshire, England, UK",
        "name": "Navenby",
        "place": "village",
        "source": "GPS waypoint"
      },
      "geometry": {
        "type": "Point",
        "coordinates": [
          -0.5239171,
          53.1066184
        ]
      },
      "id": "node/12014308"
    },
    {
      "type": "Feature",
      "properties": {
        "@id": "node/15195729",
        "description": "Stamford has remained the \"finest stone town in England\" due to its prosperity drawn from the wool trade and its historic position as a mail coach interchange on the Great North Road almost halfway between London and York.",
        "name": "Stamford",
        "name:ru": "Стамфорд",
        "place": "town",
        "population": "19701",
        "population:date": "2011",
        "source": "Bing",
        "wikidata": "Q1000662",
        "wikimedia_commons": "File:Stamford, St Mary's Hill - geograph.org.uk - 1712783.jpg",
        "wikipedia": "en:Stamford, Lincolnshire"
      },
      "geometry": {
        "type": "Point",
        "coordinates": [
          -0.4804579,
          52.6519973
        ]
      },
      "id": "node/15195729"
    },
    {
      "type": "Feature",
      "properties": {
        "@id": "node/18712963",
        "created_by": "JOSM",
        "is_in:county": "Lincolnshire",
        "is_in:district": "South Kesteven",
        "name": "Castle Bytham",
        "place": "village",
        "source:name": "dictacam",
        "source_ref:name": "80n:dsc07366.mpg"
      },
      "geometry": {
        "type": "Point",
        "coordinates": [
          -0.5362353,
          52.754958
        ]
      },
      "id": "node/18712963"
    },
    {
      "type": "Feature",
      "properties": {
        "@id": "node/18958294",
        "name": "Carlby",
        "place": "village",
        "population": "542",
        "population:date": "2011",
        "source:population": "wikipedia",
        "wikidata": "Q594132",
        "wikipedia": "en:Carlby"
      },
      "geometry": {
        "type": "Point",
        "coordinates": [
          -0.4473501,
          52.7139694
        ]
      },
      "id": "node/18958294"
    },
    {
      "type": "Feature",
      "properties": {
        "@id": "node/21639941",
        "alt_name": "Great Grimsby",
        "name": "Grimsby",
        "name:arz": "جريمسبى (نورث ياست لينكولنشير)",
        "name:azb": "قریمسبای",
        "name:be": "Грымсбі",
        "name:bg": "Гримзби",
        "name:ceb": "Grimsby (kapital sa kondado)",
        "name:cy": "Grimsby",
        "name:da": "Grimsby",
        "name:de": "Grimsby",
        "name:en": "Grimsby",
        "name:es": "Grimsby",
        "name:eu": "Grimsby",
        "name:fa": "گریمزبی",
        "name:fi": "Grimsby",
        "name:fr": "Grimsby (Royaume-Uni)",
        "name:ga": "Grimsby",
        "name:hr": "Grimsby",
        "name:id": "Grimsby",
        "name:is": "Grimsby",
        "name:it": "Grimsby",
        "name:ja": "グリムズビー",
        "name:ko": "그림즈비",
        "name:lt": "Grimsbis",
        "name:nl": "Grimsby",
        "name:nn": "Grimsby",
        "name:no": "Grimsby",
        "name:pl": "Grimsby",
        "name:pt": "Grimsby",
        "name:ro": "Grimsby",
        "name:ru": "Гримсби",
        "name:sh": "Grimsby",
        "name:sr": "Гримсби",
        "name:sv": "Grimsby",
        "name:tt": "Гримсби",
        "name:uk": "Грімсбі",
        "name:ur": "گریمسبی",
        "name:yue": "甘士比",
        "name:zh": "格里姆斯比",
        "place": "town",
        "population": "88243",
        "wikidata": "Q179406",
        "wikipedia": "en:Grimsby"
      },
      "geometry": {
        "type": "Point",
        "coordinates": [
          -0.0788045,
          53.5671407
        ]
      },
      "id": "node/21639941"
    },
    {
      "type": "Feature",
      "properties": {
        "@id": "node/21640482",
        "name": "Market Rasen",
        "place": "town",
        "wikidata": "Q779603"
      },
      "geometry": {
        "type": "Point",
        "coordinates": [
          -0.3376729,
          53.3879115
        ]
      },
      "id": "node/21640482"
    },
    {
      "type": "Feature",
      "properties": {
        "@id": "node/21641028",
        "is_in": "Lincolnshire, England, UK",
        "name": "Gainsborough",
        "place": "town",
        "wikidata": "Q288082",
        "wikipedia": "en:Gainsborough, Lincolnshire"
      },
      "geometry": {
        "type": "Point",
        "coordinates": [
          -0.7758801,
          53.3995376
        ]
      },
      "id": "node/21641028"
    },
    {
      "type": "Feature",
      "properties": {
        "@id": "node/26701135",
        "loc_name": "Skeg Vegas",
        "name": "Skegness",
        "name:lt": "Skegnesas",
        "place": "town",
        "population": "19579",
        "reg_name": "Skeggy",
        "source": "Bing",
        "source:population": "Census 2011",
        "wikidata": "Q977991",
        "wikipedia": "en:Skegness"
      },
      "geometry": {
        "type": "Point",
        "coordinates": [
          0.3428958,
          53.1437506
        ]
      },
      "id": "node/26701135"
    },
    {
      "type": "Feature",
      "properties": {
        "@id": "node/26701165",
        "name": "Scunthorpe",
        "name:lt": "Skantorpas",
        "place": "town",
        "reg_name": "Scunny",
        "wikidata": "Q913386",
        "wikipedia": "en:Scunthorpe"
      },
      "geometry": {
        "type": "Point",
        "coordinates": [
          -0.6450841,
          53.5922488
        ]
      },
      "id": "node/26701165"
    },
    {
      "type": "Feature",
      "properties": {
        "@id": "node/26984591",
        "is_in": "Lincolnshire",
        "name": "Grantham",
        "place": "town",
        "wikidata": "Q846683",
        "wikipedia": "en:Grantham"
      },
      "geometry": {
        "type": "Point",
        "coordinates": [
          -0.6438974,
          52.913192
        ]
      },
      "id": "node/26984591"
    },
    {
      "type": "Feature",
      "properties": {
        "@id": "node/26984645",
        "name": "Louth",
        "place": "town",
        "wikidata": "Q1554129",
        "wikipedia": "en:Louth, Lincolnshire"
      },
      "geometry": {
        "type": "Point",
        "coordinates": [
          -0.0022381,
          53.3675163
        ]
      },
      "id": "node/26984645"
    },
    {
      "type": "Feature",
      "properties": {
        "@id": "node/26984882",
        "name": "Mablethorpe",
        "note": "Population includes Sutton-on-Sea",
        "place": "town",
        "population": "12531",
        "source:population": "Census 2011",
        "wikidata": "Q1882406",
        "wikipedia": "en:Mablethorpe"
      },
      "geometry": {
        "type": "Point",
        "coordinates": [
          0.2606772,
          53.3408271
        ]
      },
      "id": "node/26984882"
    },
    {
      "type": "Feature",
      "properties": {
        "@id": "node/27160820",
        "name": "Spalding",
        "place": "town",
        "wikidata": "Q1185203",
        "wikipedia": "en:Spalding, Lincolnshire"
      },
      "geometry": {
        "type": "Point",
        "coordinates": [
          -0.1526475,
          52.787641
        ]
      },
      "id": "node/27160820"
    },
    {
      "type": "Feature",
      "properties": {
        "@id": "node/27161651",
        "is_in": "Lincolnshire, England, UK",
        "name": "Crowland",
        "place": "town",
        "population": "4748"
      },
      "geometry": {
        "type": "Point",
        "coordinates": [
          -0.1684056,
          52.6757315
        ]
      },
      "id": "node/27161651"
    },
    {
      "type": "Feature",
      "properties": {
        "@id": "node/27161724",
        "name": "Market Deeping",
        "place": "town",
        "population": "6,008"
      },
      "geometry": {
        "type": "Point",
        "coordinates": [
          -0.3174702,
          52.67537
        ]
      },
      "id": "node/27161724"
    },
    {
      "type": "Feature",
      "properties": {
        "@id": "node/27393122",
        "is_in": "Lincolnshire, England, UK",
        "name": "North Scarle",
        "place": "village"
      },
      "geometry": {
        "type": "Point",
        "coordinates": [
          -0.7288789,
          53.1931113
        ]
      },
      "id": "node/27393122"
    },
    {
      "type": "Feature",
      "properties": {
        "@id": "node/27393123",
        "name": "Swinderby",
        "place": "village"
      },
      "geometry": {
        "type": "Point",
        "coordinates": [
          -0.7033431,
          53.1564532
        ]
      },
      "id": "node/27393123"
    },
    {
      "type": "Feature",
      "properties": {
        "@id": "node/27408106",
        "name": "West Deeping",
        "place": "village"
      },
      "geometry": {
        "type": "Point",
        "coordinates": [
          -0.3600155,
          52.6668064
        ]
      },
      "id": "node/27408106"
    },
    {
      "type": "Feature",
      "properties": {
        "@id": "node/27409172",
        "name": "Heckington",
        "place": "village"
      },
      "geometry": {
        "type": "Point",
        "coordinates": [
          -0.299956,
          52.9816716
        ]
      },
      "id": "node/27409172"
    },
    {
      "type": "Feature",
      "properties": {
        "@id": "node/27409520",
        "is_in": "Lincolnshire, England, UK",
        "name": "Swineshead",
        "place": "village"
      },
      "geometry": {
        "type": "Point",
        "coordinates": [
          -0.1583028,
          52.9453585
        ]
      },
      "id": "node/27409520"
    },
    {
      "type": "Feature",
      "properties": {
        "@id": "node/27409527",
        "name": "Sleaford",
        "place": "town",
        "wikidata": "Q1891939",
        "wikipedia": "en:Sleaford"
      },
      "geometry": {
        "type": "Point",
        "coordinates": [
          -0.4095586,
          52.99965
        ]
      },
      "id": "node/27409527"
    },
    {
      "type": "Feature",
      "properties": {
        "@id": "node/27409563",
        "is_in": "Lincolnshire, England, UK",
        "name": "Honington",
        "place": "village"
      },
      "geometry": {
        "type": "Point",
        "coordinates": [
          -0.5949147,
          52.9774392
        ]
      },
      "id": "node/27409563"
    },
    {
      "type": "Feature",
      "properties": {
        "@id": "node/27409573",
        "is_in": "Lincolnshire, England, UK",
        "name": "Syston",
        "place": "village"
      },
      "geometry": {
        "type": "Point",
        "coordinates": [
          -0.6186966,
          52.9574708
        ]
      },
      "id": "node/27409573"
    },
    {
      "type": "Feature",
      "properties": {
        "@id": "node/27409574",
        "is_in": "Lincolnshire, England, UK",
        "name": "Barkston",
        "place": "village"
      },
      "geometry": {
        "type": "Point",
        "coordinates": [
          -0.6153062,
          52.9648418
        ]
      },
      "id": "node/27409574"
    },
    {
      "type": "Feature",
      "properties": {
        "@id": "node/27409680",
        "is_in": "Lincolnshire, England, UK",
        "name": "Great Gonerby",
        "place": "village"
      },
      "geometry": {
        "type": "Point",
        "coordinates": [
          -0.6664378,
          52.9351023
        ]
      },
      "id": "node/27409680"
    },
    {
      "type": "Feature",
      "properties": {
        "@id": "node/27583967",
        "loc_name": "Cleggy",
        "name": "Cleethorpes",
        "place": "town",
        "population": "39107",
        "reg_name": "Cleggy",
        "wikidata": "Q587765",
        "wikipedia": "en:Cleethorpes"
      },
      "geometry": {
        "type": "Point",
        "coordinates": [
          -0.0289969,
          53.5572068
        ]
      },
      "id": "node/27583967"
    },
    {
      "type": "Feature",
      "properties": {
        "@id": "node/29277992",
        "name": "Boston",
        "name:be": "Бостан",
        "name:lt": "Bostonas",
        "place": "town",
        "source": "Bing",
        "wikidata": "Q311975",
        "wikipedia": "en:Boston, Lincolnshire"
      },
      "geometry": {
        "type": "Point",
        "coordinates": [
          -0.0237985,
          52.9776561
        ]
      },
      "id": "node/29277992"
    },
    {
      "type": "Feature",
      "properties": {
        "@id": "node/29278170",
        "is_in": "Lincolnshire, England, UK",
        "name": "Skirbeck",
        "place": "suburb",
        "source": "Bing"
      },
      "geometry": {
        "type": "Point",
        "coordinates": [
          -0.0084822,
          52.9691289
        ]
      },
      "id": "node/29278170"
    },
    {
      "type": "Feature",
      "properties": {
        "@id": "node/29278179",
        "is_in": "Lincolnshire, England, UK",
        "name": "Fishtoft",
        "place": "village",
        "source": "npe"
      },
      "geometry": {
        "type": "Point",
        "coordinates": [
          0.0269015,
          52.9618836
        ]
      },
      "id": "node/29278179"
    },
    {
      "type": "Feature",
      "properties": {
        "@id": "node/29278184",
        "is_in": "Lincolnshire, England, UK",
        "name": "Freiston",
        "place": "village",
        "source": "Bing"
      },
      "geometry": {
        "type": "Point",
        "coordinates": [
          0.0484107,
          52.9756282
        ]
      },
      "id": "node/29278184"
    },
    {
      "type": "Feature",
      "properties": {
        "@id": "node/29278199",
        "is_in": "Lincolnshire, England, UK",
        "name": "Butterwick",
        "place": "village",
        "source": "npe"
      },
      "geometry": {
        "type": "Point",
        "coordinates": [
          0.0684667,
          52.9841838
        ]
      },
      "id": "node/29278199"
    },
    {
      "type": "Feature",
      "properties": {
        "@id": "node/29281726",
        "is_in": "Lincolnshire, England, UK",
        "name": "Langrick",
        "place": "village",
        "source": "Bing",
        "wikidata": "Q6486449"
      },
      "geometry": {
        "type": "Point",
        "coordinates": [
          -0.1074974,
          53.0221186
        ]
      },
      "id": "node/29281726"
    },
    {
      "type": "Feature",
      "properties": {
        "@id": "node/29281730",
        "alt_name": "Thornton le Fen",
        "is_in": "Lincolnshire, England, UK",
        "name": "Gipsey Bridge",
        "place": "village",
        "source": "Bing"
      },
      "geometry": {
        "type": "Point",
        "coordinates": [
          -0.0929039,
          53.0317582
        ]
      },
      "id": "node/29281730"
    },
    {
      "type": "Feature",
      "properties": {
        "@id": "node/29281731",
        "is_in": "Lincolnshire, England, UK",
        "name": "Frithville",
        "place": "village",
        "source": "Bing",
        "wikidata": "Q5504771"
      },
      "geometry": {
        "type": "Point",
        "coordinates": [
          -0.0352877,
          53.036231
        ]
      },
      "id": "node/29281731"
    },
    {
      "type": "Feature",
      "properties": {
        "@id": "node/29281776",
        "is_in": "Lincolnshire, England, UK",
        "name": "New Bolingbroke",
        "place": "village",
        "source": "Bing",
        "wikidata": "Q7005589"
      },
      "geometry": {
        "type": "Point",
        "coordinates": [
          -0.0478132,
          53.103262
        ]
      },
      "id": "node/29281776"
    },
    {
      "type": "Feature",
      "properties": {
        "@id": "node/29281810",
        "is_in": "Lincolnshire, England, UK",
        "name": "Mareham le Fen",
        "place": "village",
        "source": "Bing"
      },
      "geometry": {
        "type": "Point",
        "coordinates": [
          -0.088639,
          53.1310505
        ]
      },
      "id": "node/29281810"
    },
    {
      "type": "Feature",
      "properties": {
        "@id": "node/29281932",
        "is_in": "Lincolnshire, England, UK",
        "name": "Wood Enderby",
        "place": "village",
        "source": "Bing"
      },
      "geometry": {
        "type": "Point",
        "coordinates": [
          -0.0949588,
          53.1577693
        ]
      },
      "id": "node/29281932"
    },
    {
      "type": "Feature",
      "properties": {
        "@id": "node/29282000",
        "is_in": "Lincolnshire, England, UK",
        "name": "High Toynton",
        "place": "village",
        "source": "Bing"
      },
      "geometry": {
        "type": "Point",
        "coordinates": [
          -0.0791223,
          53.2107419
        ]
      },
      "id": "node/29282000"
    },
    {
      "type": "Feature",
      "properties": {
        "@id": "node/29282066",
        "is_in": "Lincolnshire, England, UK",
        "name": "Fulletby",
        "place": "village",
        "source": "Bing"
      },
      "geometry": {
        "type": "Point",
        "coordinates": [
          -0.0558112,
          53.2412151
        ]
      },
      "id": "node/29282066"
    },
    {
      "type": "Feature",
      "properties": {
        "@id": "node/29282072",
        "is_in": "Lincolnshire, England, UK",
        "name": "Belchford",
        "place": "village",
        "source": "Bing"
      },
      "geometry": {
        "type": "Point",
        "coordinates": [
          -0.0628264,
          53.2607735
        ]
      },
      "id": "node/29282072"
    },
    {
      "type": "Feature",
      "properties": {
        "@id": "node/29282076",
        "is_in": "Lincolnshire, England, UK",
        "name": "Scamblesby",
        "place": "village",
        "source": "Bing"
      },
      "geometry": {
        "type": "Point",
        "coordinates": [
          -0.0858297,
          53.2905341
        ]
      },
      "id": "node/29282076"
    },
    {
      "type": "Feature",
      "properties": {
        "@id": "node/29282169",
        "is_in": "Lincolnshire, England, UK",
        "name": "Tathwell",
        "place": "village",
        "source": "Bing"
      },
      "geometry": {
        "type": "Point",
        "coordinates": [
          -0.0183869,
          53.3277316
        ]
      },
      "id": "node/29282169"
    },
    {
      "type": "Feature",
      "properties": {
        "@id": "node/29282485",
        "is_in": "Lincolnshire, England, UK",
        "name": "Ludborough",
        "place": "village",
        "source": "npe"
      },
      "geometry": {
        "type": "Point",
        "coordinates": [
          -0.0511011,
          53.4406964
        ]
      },
      "id": "node/29282485"
    },
    {
      "type": "Feature",
      "properties": {
        "@id": "node/29282577",
        "is_in": "Lincolnshire, England, UK",
        "name": "Covenham St. Mary",
        "place": "village",
        "source": "npe"
      },
      "geometry": {
        "type": "Point",
        "coordinates": [
          0.0157257,
          53.4288994
        ]
      },
      "id": "node/29282577"
    },
    {
      "type": "Feature",
      "properties": {
        "@id": "node/29282847",
        "is_in": "Lincolnshire, England, UK",
        "name": "Alvingham",
        "place": "village",
        "source": "npe"
      },
      "geometry": {
        "type": "Point",
        "coordinates": [
          0.048733,
          53.4010513
        ]
      },
      "id": "node/29282847"
    },
    {
      "type": "Feature",
      "properties": {
        "@id": "node/29282915",
        "is_in": "Lincolnshire, England, UK",
        "name": "North Cockerington",
        "place": "village",
        "source": "npe"
      },
      "geometry": {
        "type": "Point",
        "coordinates": [
          0.0636455,
          53.3960108
        ]
      },
      "id": "node/29282915"
    },
    {
      "type": "Feature",
      "properties": {
        "@id": "node/29348891",
        "is_in": "Lincolnshire, England, UK",
        "name": "Scartho",
        "place": "village",
        "source": "npe"
      },
      "geometry": {
        "type": "Point",
        "coordinates": [
          -0.086356,
          53.5374084
        ]
      },
      "id": "node/29348891"
    },
    {
      "type": "Feature",
      "properties": {
        "@id": "node/29348946",
        "is_in": "Lincolnshire, England, UK",
        "is_in:country_code": "GB",
        "is_in:county": "Lincolnshire",
        "is_in:district": "North East Lincolnshire",
        "name": "Humberston",
        "old_name": "Humberstone",
        "place": "village",
        "population": "5384",
        "source": "npe",
        "wikidata": "Q4357780",
        "wikipedia": "en:Humberston"
      },
      "geometry": {
        "type": "Point",
        "coordinates": [
          -0.0234751,
          53.5339693
        ]
      },
      "id": "node/29348946"
    },
    {
      "type": "Feature",
      "properties": {
        "@id": "node/29349046",
        "is_in": "Lincolnshire, England, UK",
        "is_in:district": "North East Lincolnshire",
        "name": "Waltham",
        "place": "village"
      },
      "geometry": {
        "type": "Point",
        "coordinates": [
          -0.0963777,
          53.515849
        ]
      },
      "id": "node/29349046"
    },
    {
      "type": "Feature",
      "properties": {
        "@id": "node/29349108",
        "alt_name": "Holton-le-Clay",
        "is_in": "Lincolnshire, England, UK",
        "is_in:district": "East Lindsey",
        "name": "Holton le Clay",
        "place": "village",
        "source": "npe"
      },
      "geometry": {
        "type": "Point",
        "coordinates": [
          -0.0606672,
          53.5051343
        ]
      },
      "id": "node/29349108"
    },
    {
      "type": "Feature",
      "properties": {
        "@id": "node/29349142",
        "is_in": "Lincolnshire, England, UK",
        "name": "Tetney",
        "place": "village",
        "source": "npe"
      },
      "geometry": {
        "type": "Point",
        "coordinates": [
          -0.0227554,
          53.490273
        ]
      },
      "id": "node/29349142"
    },
    {
      "type": "Feature",
      "properties": {
        "@id": "node/29456559",
        "alt_name": "Halltoft",
        "is_in": "Lincolnshire, England, UK",
        "name": "Haltoft End",
        "place": "village",
        "source": "Bing"
      },
      "geometry": {
        "type": "Point",
        "coordinates": [
          0.0372784,
          52.9860539
        ]
      },
      "id": "node/29456559"
    },
    {
      "type": "Feature",
      "properties": {
        "@id": "node/29456651",
        "is_in": "Lincolnshire, England, UK",
        "name": "Benington",
        "place": "village",
        "source": "Bing"
      },
      "geometry": {
        "type": "Point",
        "coordinates": [
          0.0797326,
          52.9979391
        ]
      },
      "id": "node/29456651"
    },
    {
      "type": "Feature",
      "properties": {
        "@id": "node/29456696",
        "is_in": "Lincolnshire, England, UK",
        "name": "Leverton",
        "place": "village",
        "source": "Bing"
      },
      "geometry": {
        "type": "Point",
        "coordinates": [
          0.0840916,
          53.0069137
        ]
      },
      "id": "node/29456696"
    },
    {
      "type": "Feature",
      "properties": {
        "@id": "node/29456831",
        "is_in": "Lincolnshire, England, UK",
        "name": "Sibsey",
        "place": "village",
        "source": "Bing"
      },
      "geometry": {
        "type": "Point",
        "coordinates": [
          0.0166928,
          53.0379996
        ]
      },
      "id": "node/29456831"
    },
    {
      "type": "Feature",
      "properties": {
        "@id": "node/29456859",
        "is_in": "Lincolnshire, England, UK",
        "name": "Old Leake",
        "place": "village",
        "source": "Bing"
      },
      "geometry": {
        "type": "Point",
        "coordinates": [
          0.0969849,
          53.0311795
        ]
      },
      "id": "node/29456859"
    },
    {
      "type": "Feature",
      "properties": {
        "@id": "node/29456983",
        "is_in": "Lincolnshire, England, UK",
        "name": "Wrangle",
        "place": "village",
        "source": "Bing"
      },
      "geometry": {
        "type": "Point",
        "coordinates": [
          0.1247633,
          53.0378725
        ]
      },
      "id": "node/29456983"
    },
    {
      "type": "Feature",
      "properties": {
        "@id": "node/29457403",
        "is_in": "Lincolnshire, England, UK",
        "name": "New York",
        "place": "village",
        "source": "Bing",
        "wikidata": "Q13587801",
        "wikipedia": "en:New York, Lincolnshire"
      },
      "geometry": {
        "type": "Point",
        "coordinates": [
          -0.1396847,
          53.0784049
        ]
      },
      "id": "node/29457403"
    },
    {
      "type": "Feature",
      "properties": {
        "@id": "node/29457682",
        "is_in": "Lincolnshire, England, UK",
        "name": "Chapel Hill",
        "place": "village",
        "source": "npe"
      },
      "geometry": {
        "type": "Point",
        "coordinates": [
          -0.1987839,
          53.0714586
        ]
      },
      "id": "node/29457682"
    },
    {
      "type": "Feature",
      "properties": {
        "@id": "node/29457803",
        "is_in": "Lincolnshire, England, UK",
        "name": "North Kyme",
        "place": "village",
        "source": "npe"
      },
      "geometry": {
        "type": "Point",
        "coordinates": [
          -0.2824798,
          53.0600406
        ]
      },
      "id": "node/29457803"
    },
    {
      "type": "Feature",
      "properties": {
        "@id": "node/29457906",
        "is_in": "Lincolnshire, England, UK",
        "name": "Dorrington",
        "place": "village",
        "source": "npe"
      },
      "geometry": {
        "type": "Point",
        "coordinates": [
          -0.3872865,
          53.0623777
        ]
      },
      "id": "node/29457906"
    },
    {
      "type": "Feature",
      "properties": {
        "@id": "node/29457942",
        "is_in": "Lincolnshire, England, UK",
        "name": "Digby",
        "place": "village",
        "source": "Bing"
      },
      "geometry": {
        "type": "Point",
        "coordinates": [
          -0.3863599,
          53.0804317
        ]
      },
      "id": "node/29457942"
    },
    {
      "type": "Feature",
      "properties": {
        "@id": "node/29458027",
        "is_in": "Lincolnshire, England, UK",
        "name": "Welbourn",
        "place": "village"
      },
      "geometry": {
        "type": "Point",
        "coordinates": [
          -0.5581225,
          53.0758465
        ]
      },
      "id": "node/29458027"
    },
    {
      "type": "Feature",
      "properties": {
        "@id": "node/29458096",
        "is_in": "Lincolnshire, England, UK",
        "name": "Leadenham",
        "place": "village"
      },
      "geometry": {
        "type": "Point",
        "coordinates": [
          -0.5819982,
          53.0589415
        ]
      },
      "id": "node/29458096"
    },
    {
      "type": "Feature",
      "properties": {
        "@id": "node/29458126",
        "is_in": "Lincolnshire, England, UK",
        "name": "Brant Broughton",
        "place": "village",
        "source": "npe"
      },
      "geometry": {
        "type": "Point",
        "coordinates": [
          -0.6333238,
          53.0782321
        ]
      },
      "id": "node/29458126"
    },
    {
      "type": "Feature",
      "properties": {
        "@id": "node/29458263",
        "is_in": "Lincolnshire, England, UK",
        "name": "Wellingore",
        "place": "village",
        "source": "Bing"
      },
      "geometry": {
        "type": "Point",
        "coordinates": [
          -0.5324854,
          53.0987094
        ]
      },
      "id": "node/29458263"
    },
    {
      "type": "Feature",
      "properties": {
        "@id": "node/29458282",
        "is_in": "Lincolnshire, England, UK",
        "name": "Boothby Graffoe",
        "place": "village",
        "source": "npe"
      },
      "geometry": {
        "type": "Point",
        "coordinates": [
          -0.5298767,
          53.1208644
        ]
      },
      "id": "node/29458282"
    },
    {
      "type": "Feature",
      "properties": {
        "@id": "node/29458653",
        "is_in": "Lincolnshire, England, UK",
        "name": "Ruskington",
        "place": "village",
        "population": "5169",
        "source": "npe",
        "wikidata": "Q1882468",
        "wikipedia": "en:Ruskington"
      },
      "geometry": {
        "type": "Point",
        "coordinates": [
          -0.3857589,
          53.0451899
        ]
      },
      "id": "node/29458653"
    },
    {
      "type": "Feature",
      "properties": {
        "@id": "node/29458794",
        "is_in": "Lincolnshire, England, UK",
        "name": "Silk Willoughby",
        "place": "village",
        "source": "npe"
      },
      "geometry": {
        "type": "Point",
        "coordinates": [
          -0.4278724,
          52.9732279
        ]
      },
      "id": "node/29458794"
    },
    {
      "type": "Feature",
      "properties": {
        "@id": "node/29458823",
        "is_in": "Lincolnshire, England, UK",
        "name": "Kirkby la Thorpe",
        "place": "village",
        "source": "npe"
      },
      "geometry": {
        "type": "Point",
        "coordinates": [
          -0.363653,
          52.999981
        ]
      },
      "id": "node/29458823"
    },
    {
      "type": "Feature",
      "properties": {
        "@id": "node/29458894",
        "is_in": "Lincolnshire, England, UK",
        "name": "Scredington",
        "place": "village",
        "source": "npe"
      },
      "geometry": {
        "type": "Point",
        "coordinates": [
          -0.3722643,
          52.9509886
        ]
      },
      "id": "node/29458894"
    },
    {
      "type": "Feature",
      "properties": {
        "@id": "node/29458920",
        "name": "Helpringham",
        "place": "village",
        "source": "npe"
      },
      "geometry": {
        "type": "Point",
        "coordinates": [
          -0.3062884,
          52.9516942
        ]
      },
      "id": "node/29458920"
    },
    {
      "type": "Feature",
      "properties": {
        "@id": "node/29459037",
        "is_in": "Lincolnshire, England, UK",
        "name": "Swaton",
        "place": "village",
        "source": "npe"
      },
      "geometry": {
        "type": "Point",
        "coordinates": [
          -0.316716,
          52.9246359
        ]
      },
      "id": "node/29459037"
    },
    {
      "type": "Feature",
      "properties": {
        "@id": "node/29459069",
        "is_in": "Lincolnshire, England, UK",
        "name": "Donington",
        "place": "village",
        "wikidata": "Q1241544",
        "wikipedia": "en:Donington, Lincolnshire"
      },
      "geometry": {
        "type": "Point",
        "coordinates": [
          -0.206098,
          52.9046401
        ]
      },
      "id": "node/29459069"
    },
    {
      "type": "Feature",
      "properties": {
        "@id": "node/29459238",
        "is_in": "Lincolnshire, England, UK",
        "name": "Quadring",
        "place": "village",
        "source": "Bing"
      },
      "geometry": {
        "type": "Point",
        "coordinates": [
          -0.1836923,
          52.8820823
        ]
      },
      "id": "node/29459238"
    },
    {
      "type": "Feature",
      "properties": {
        "@id": "node/29459250",
        "is_in": "Lincolnshire, England, UK",
        "name": "Gosberton",
        "place": "village",
        "source": "npe"
      },
      "geometry": {
        "type": "Point",
        "coordinates": [
          -0.161089,
          52.869059
        ]
      },
      "id": "node/29459250"
    },
    {
      "type": "Feature",
      "properties": {
        "@id": "node/29508222",
        "is_in": "Lincolnshire, England, UK",
        "name": "Stickney",
        "place": "village",
        "source": "Bing"
      },
      "geometry": {
        "type": "Point",
        "coordinates": [
          0.0036003,
          53.0924582
        ]
      },
      "id": "node/29508222"
    },
    {
      "type": "Feature",
      "properties": {
        "@id": "node/29508307",
        "is_in": "Lincolnshire, England, UK",
        "name": "Stickford",
        "place": "village",
        "source": "Bing"
      },
      "geometry": {
        "type": "Point",
        "coordinates": [
          0.0248635,
          53.1209768
        ]
      },
      "id": "node/29508307"
    },
    {
      "type": "Feature",
      "properties": {
        "@id": "node/29509340",
        "is_in": "Lincolnshire, England, UK",
        "name": "East Kirkby",
        "place": "village",
        "wikidata": "Q5328736"
      },
      "geometry": {
        "type": "Point",
        "coordinates": [
          -0.0044193,
          53.1401714
        ]
      },
      "id": "node/29509340"
    },
    {
      "type": "Feature",
      "properties": {
        "@id": "node/29510138",
        "is_in": "Lincolnshire, England, UK",
        "name": "Hagworthingham",
        "place": "village",
        "source": "Bing"
      },
      "geometry": {
        "type": "Point",
        "coordinates": [
          0.0133902,
          53.2049164
        ]
      },
      "id": "node/29510138"
    },
    {
      "type": "Feature",
      "properties": {
        "@id": "node/29510677",
        "is_in": "Lincolnshire, England, UK",
        "name": "Tetford",
        "place": "village",
        "source": "Bing"
      },
      "geometry": {
        "type": "Point",
        "coordinates": [
          -0.0066612,
          53.251946
        ]
      },
      "id": "node/29510677"
    },
    {
      "type": "Feature",
      "properties": {
        "@id": "node/29805183",
        "is_in": "Lincolnshire, England, UK",
        "is_in:county": "Lincolnshire",
        "is_in:district": "South Holland",
        "name": "Sutton Bridge",
        "place": "village"
      },
      "geometry": {
        "type": "Point",
        "coordinates": [
          0.1915749,
          52.768304
        ]
      },
      "id": "node/29805183"
    },
    {
      "type": "Feature",
      "properties": {
        "@id": "node/29805416",
        "is_in": "Lincolnshire, England, UK",
        "is_in:county": "Lincolnshire",
        "is_in:district": "South Holland",
        "name": "Long Sutton",
        "place": "town",
        "population": "4,821"
      },
      "geometry": {
        "type": "Point",
        "coordinates": [
          0.1217016,
          52.7855642
        ]
      },
      "id": "node/29805416"
    },
    {
      "type": "Feature",
      "properties": {
        "@id": "node/29805439",
        "is_in:county": "Lincolnshire",
        "is_in:district": "South Holland",
        "name": "Holbeach",
        "place": "town",
        "wikidata": "Q1612253",
        "wikipedia": "en:Holbeach"
      },
      "geometry": {
        "type": "Point",
        "coordinates": [
          0.0180043,
          52.80421
        ]
      },
      "id": "node/29805439"
    },
    {
      "type": "Feature",
      "properties": {
        "@id": "node/29805440",
        "is_in": "Lincolnshire, England, UK",
        "is_in:county": "Lincolnshire",
        "is_in:district": "South Holland",
        "name": "Whaplode",
        "place": "village"
      },
      "geometry": {
        "type": "Point",
        "coordinates": [
          -0.0360638,
          52.7994628
        ]
      },
      "id": "node/29805440"
    },
    {
      "type": "Feature",
      "properties": {
        "@id": "node/29805502",
        "is_in": "Lincolnshire, England, UK",
        "is_in:county": "Lincolnshire",
        "is_in:district": "South Holland",
        "name": "Gedney",
        "place": "village"
      },
      "geometry": {
        "type": "Point",
        "coordinates": [
          0.081399,
          52.7980271
        ]
      },
      "id": "node/29805502"
    },
    {
      "type": "Feature",
      "properties": {
        "@id": "node/29805503",
        "is_in": "Lincolnshire, England, UK",
        "is_in:county": "Lincolnshire",
        "is_in:district": "South Holland",
        "name": "Fleet",
        "name:lt": "Flitas",
        "place": "village",
        "wikidata": "Q5458375",
        "wikipedia": "en:Fleet, Lincolnshire"
      },
      "geometry": {
        "type": "Point",
        "coordinates": [
          0.0581494,
          52.7934253
        ]
      },
      "id": "node/29805503"
    },
    {
      "type": "Feature",
      "properties": {
        "@id": "node/30867075",
        "is_in": "Lincolnshire, England, UK",
        "is_in:county": "Lincolnshire",
        "name": "Gunby",
        "place": "village"
      },
      "geometry": {
        "type": "Point",
        "coordinates": [
          -0.6497115,
          52.7844148
        ]
      },
      "id": "node/30867075"
    },
    {
      "type": "Feature",
      "properties": {
        "@id": "node/31507691",
        "is_in": "Lincolnshire, England, UK",
        "name": "West Ashby",
        "place": "village",
        "source": "Bing"
      },
      "geometry": {
        "type": "Point",
        "coordinates": [
          -0.104626,
          53.2341761
        ]
      },
      "id": "node/31507691"
    },
    {
      "type": "Feature",
      "properties": {
        "@id": "node/31507955",
        "is_in": "Lincolnshire, England, UK",
        "is_in:district": "East Lindsey",
        "name": "North Thoresby",
        "place": "village",
        "source": "npe"
      },
      "geometry": {
        "type": "Point",
        "coordinates": [
          -0.0554188,
          53.4670883
        ]
      },
      "id": "node/31507955"
    },
    {
      "type": "Feature",
      "properties": {
        "@id": "node/31508109",
        "is_in": "Lincolnshire, England, UK",
        "name": "Humberston Grange",
        "place": "village",
        "source": "npe"
      },
      "geometry": {
        "type": "Point",
        "coordinates": [
          -0.0538788,
          53.5238007
        ]
      },
      "id": "node/31508109"
    },
    {
      "type": "Feature",
      "properties": {
        "@id": "node/31508298",
        "alt_name": "North Coates",
        "is_in": "Lincolnshire, England, UK",
        "name": "North Cotes",
        "note": "Historically called North Coates, more commonly referred to as North Cotes (spelt without an 'a').",
        "place": "village",
        "source": "npe",
        "wikidata": "Q7054877"
      },
      "geometry": {
        "type": "Point",
        "coordinates": [
          0.032448,
          53.4847044
        ]
      },
      "id": "node/31508298"
    },
    {
      "type": "Feature",
      "properties": {
        "@id": "node/31508315",
        "is_in": "Lincolnshire, England, UK",
        "name": "Fulstow",
        "place": "village",
        "source": "npe"
      },
      "geometry": {
        "type": "Point",
        "coordinates": [
          -0.0030853,
          53.4544582
        ]
      },
      "id": "node/31508315"
    },
    {
      "type": "Feature",
      "properties": {
        "@id": "node/31508326",
        "is_in": "Lincolnshire, England, UK",
        "name": "Keddington",
        "place": "village",
        "source": "npe"
      },
      "geometry": {
        "type": "Point",
        "coordinates": [
          0.021885,
          53.3773844
        ]
      },
      "id": "node/31508326"
    },
    {
      "type": "Feature",
      "properties": {
        "@id": "node/31508372",
        "is_in": "Lincolnshire, England, UK",
        "name": "Little Cawthorpe",
        "place": "village",
        "source": "Bing",
        "wikidata": "Q2107203",
        "wikipedia": "en:Little Cawthorpe"
      },
      "geometry": {
        "type": "Point",
        "coordinates": [
          0.0367064,
          53.3344113
        ]
      },
      "id": "node/31508372"
    },
    {
      "type": "Feature",
      "properties": {
        "@id": "node/31508513",
        "alt_name": "Bolingbroke",
        "is_in": "Lincolnshire, England, UK",
        "name": "Old Bolingbroke",
        "place": "village",
        "source": "Bing"
      },
      "geometry": {
        "type": "Point",
        "coordinates": [
          0.0188986,
          53.1651295
        ]
      },
      "id": "node/31508513"
    },
    {
      "type": "Feature",
      "properties": {
        "@id": "node/31508535",
        "alt_name": "Northlands",
        "is_in": "Lincolnshire, England, UK",
        "name": "Sibsey Northlands",
        "place": "village",
        "source": "Bing"
      },
      "geometry": {
        "type": "Point",
        "coordinates": [
          0.0086449,
          53.060881
        ]
      },
      "id": "node/31508535"
    },
    {
      "type": "Feature",
      "properties": {
        "@id": "node/31508611",
        "is_in": "Lincolnshire, England, UK",
        "name": "Wyberton",
        "place": "village",
        "source": "Bing"
      },
      "geometry": {
        "type": "Point",
        "coordinates": [
          -0.0411564,
          52.9544795
        ]
      },
      "id": "node/31508611"
    },
    {
      "type": "Feature",
      "properties": {
        "@id": "node/31508612",
        "is_in": "Lincolnshire, England, UK",
        "is_in:district": "Boston",
        "is_in:ward": "Kirton & Frampton",
        "name": "Frampton",
        "place": "village",
        "source": "npe, local knowledge",
        "source:url": "https://www.mybostonuk.com/wp-content/uploads/2019/03/Become_a_councillor.pdf",
        "wikidata": "Q2585652",
        "wikipedia": "en:Frampton, Lincolnshire"
      },
      "geometry": {
        "type": "Point",
        "coordinates": [
          -0.0321117,
          52.934228
        ]
      },
      "id": "node/31508612"
    },
    {
      "type": "Feature",
      "properties": {
        "@id": "node/31508727",
        "is_in": "Lincolnshire, England, UK",
        "name": "Leake Common Side",
        "place": "village",
        "source": "Bing"
      },
      "geometry": {
        "type": "Point",
        "coordinates": [
          0.0840943,
          53.0517635
        ]
      },
      "id": "node/31508727"
    },
    {
      "type": "Feature",
      "properties": {
        "@id": "node/31508770",
        "is_in": "Lincolnshire, England, UK",
        "name": "New Leake",
        "place": "village",
        "source": "Bing"
      },
      "geometry": {
        "type": "Point",
        "coordinates": [
          0.0911437,
          53.0928673
        ]
      },
      "id": "node/31508770"
    },
    {
      "type": "Feature",
      "properties": {
        "@id": "node/31508812",
        "is_in": "Lincolnshire, England, UK",
        "name": "Keal Cotes",
        "place": "village",
        "source": "Bing"
      },
      "geometry": {
        "type": "Point",
        "coordinates": [
          0.0398806,
          53.1290969
        ]
      },
      "id": "node/31508812"
    },
    {
      "type": "Feature",
      "properties": {
        "@id": "node/31508832",
        "is_in": "Lincolnshire, England, UK",
        "name": "West Keal",
        "place": "village",
        "source": "Bing"
      },
      "geometry": {
        "type": "Point",
        "coordinates": [
          0.0427267,
          53.1500536
        ]
      },
      "id": "node/31508832"
    },
    {
      "type": "Feature",
      "properties": {
        "@id": "node/31508868",
        "is_in": "Lincolnshire, England, UK",
        "name": "East Keal",
        "place": "village",
        "source": "Bing"
      },
      "geometry": {
        "type": "Point",
        "coordinates": [
          0.061922,
          53.1528018
        ]
      },
      "id": "node/31508868"
    },
    {
      "type": "Feature",
      "properties": {
        "@id": "node/31508874",
        "is_in": "Lincolnshire, England, UK",
        "name": "Toynton All Saints",
        "place": "village",
        "source": "Bing"
      },
      "geometry": {
        "type": "Point",
        "coordinates": [
          0.080844,
          53.1533262
        ]
      },
      "id": "node/31508874"
    },
    {
      "type": "Feature",
      "properties": {
        "@id": "node/31508907",
        "is_in": "Lincolnshire, England, UK",
        "name": "Toynton St Peter",
        "place": "village",
        "source": "npe"
      },
      "geometry": {
        "type": "Point",
        "coordinates": [
          0.1000436,
          53.1472991
        ]
      },
      "id": "node/31508907"
    },
    {
      "type": "Feature",
      "properties": {
        "@id": "node/31508930",
        "is_in": "Lincolnshire, England, UK",
        "name": "Mavis Enderby",
        "place": "village",
        "source": "Bing"
      },
      "geometry": {
        "type": "Point",
        "coordinates": [
          0.0363565,
          53.1781001
        ]
      },
      "id": "node/31508930"
    },
    {
      "type": "Feature",
      "properties": {
        "@id": "node/31508947",
        "is_in": "Lincolnshire, England, UK",
        "name": "Hundleby",
        "place": "village",
        "source": "Bing"
      },
      "geometry": {
        "type": "Point",
        "coordinates": [
          0.0754922,
          53.1772589
        ]
      },
      "id": "node/31508947"
    },
    {
      "type": "Feature",
      "properties": {
        "@id": "node/31508998",
        "is_in": "Lincolnshire, England, UK",
        "name": "Raithby",
        "place": "village",
        "source": "Bing",
        "wikidata": "Q7285201"
      },
      "geometry": {
        "type": "Point",
        "coordinates": [
          0.0529871,
          53.1839138
        ]
      },
      "id": "node/31508998"
    },
    {
      "type": "Feature",
      "properties": {
        "@id": "node/31509001",
        "is_in": "Lincolnshire, England, UK",
        "name": "Partney",
        "place": "village",
        "source": "Bing"
      },
      "geometry": {
        "type": "Point",
        "coordinates": [
          0.1097321,
          53.1937563
        ]
      },
      "id": "node/31509001"
    },
    {
      "type": "Feature",
      "properties": {
        "@id": "node/31509201",
        "is_in": "Lincolnshire, England, UK",
        "name": "Brinkhill",
        "place": "village",
        "source": "Bing"
      },
      "geometry": {
        "type": "Point",
        "coordinates": [
          0.0551617,
          53.2413792
        ]
      },
      "id": "node/31509201"
    },
    {
      "type": "Feature",
      "properties": {
        "@id": "node/31509988",
        "is_in": "Lincolnshire, England, UK",
        "name": "Legbourne",
        "place": "village",
        "source": "Bing"
      },
      "geometry": {
        "type": "Point",
        "coordinates": [
          0.0508002,
          53.338592
        ]
      },
      "id": "node/31509988"
    },
    {
      "type": "Feature",
      "properties": {
        "@id": "node/31510055",
        "is_in": "Lincolnshire, England, UK",
        "name": "Great Carlton",
        "place": "village",
        "source": "Bing"
      },
      "geometry": {
        "type": "Point",
        "coordinates": [
          0.1177452,
          53.3453792
        ]
      },
      "id": "node/31510055"
    },
    {
      "type": "Feature",
      "properties": {
        "@id": "node/31510079",
        "is_in": "Lincolnshire, England, UK",
        "name": "Little Carlton",
        "place": "village",
        "source": "Bing"
      },
      "geometry": {
        "type": "Point",
        "coordinates": [
          0.1005664,
          53.3474146
        ]
      },
      "id": "node/31510079"
    },
    {
      "type": "Feature",
      "properties": {
        "@id": "node/31510104",
        "is_in": "Lincolnshire, England, UK",
        "name": "Manby",
        "place": "village",
        "source": "npe"
      },
      "geometry": {
        "type": "Point",
        "coordinates": [
          0.0968488,
          53.3616463
        ]
      },
      "id": "node/31510104"
    },
    {
      "type": "Feature",
      "properties": {
        "@id": "node/31510184",
        "is_in": "Lincolnshire, England, UK",
        "name": "Grimoldby",
        "place": "village",
        "source": "npe"
      },
      "geometry": {
        "type": "Point",
        "coordinates": [
          0.0901237,
          53.3719357
        ]
      },
      "id": "node/31510184"
    },
    {
      "type": "Feature",
      "properties": {
        "@id": "node/31510204",
        "is_in": "Lincolnshire, England, UK",
        "name": "South Cockerington",
        "place": "village",
        "source": "npe"
      },
      "geometry": {
        "type": "Point",
        "coordinates": [
          0.0739265,
          53.3800101
        ]
      },
      "id": "node/31510204"
    },
    {
      "type": "Feature",
      "properties": {
        "@id": "node/31510279",
        "is_in": "Lincolnshire, England, UK",
        "name": "Conisholme",
        "place": "village",
        "source": "npe"
      },
      "geometry": {
        "type": "Point",
        "coordinates": [
          0.1083924,
          53.4386953
        ]
      },
      "id": "node/31510279"
    },
    {
      "type": "Feature",
      "properties": {
        "@id": "node/31510342",
        "is_in": "Lincolnshire, England, UK",
        "name": "Grainthorpe",
        "place": "village",
        "source": "npe"
      },
      "geometry": {
        "type": "Point",
        "coordinates": [
          0.0806053,
          53.4533854
        ]
      },
      "id": "node/31510342"
    },
    {
      "type": "Feature",
      "properties": {
        "@id": "node/31510354",
        "is_in": "Lincolnshire, England, UK",
        "name": "Wragholme",
        "place": "village",
        "source": "npe"
      },
      "geometry": {
        "type": "Point",
        "coordinates": [
          0.0730896,
          53.4581341
        ]
      },
      "id": "node/31510354"
    },
    {
      "type": "Feature",
      "properties": {
        "@id": "node/31510406",
        "alt_name": "Marsh Chapel",
        "is_in": "Lincolnshire, England, UK",
        "name": "Marshchapel",
        "place": "village",
        "source": "Bing"
      },
      "geometry": {
        "type": "Point",
        "coordinates": [
          0.0472038,
          53.4724221
        ]
      },
      "id": "node/31510406"
    },
    {
      "type": "Feature",
      "properties": {
        "@id": "node/31510618",
        "is_in": "Lincolnshire, England, UK",
        "name": "North Somercotes",
        "place": "village",
        "source": "npe"
      },
      "geometry": {
        "type": "Point",
        "coordinates": [
          0.1390434,
          53.4471931
        ]
      },
      "id": "node/31510618"
    },
    {
      "type": "Feature",
      "properties": {
        "@id": "node/31510698",
        "is_in": "Lincolnshire, England, UK",
        "name": "South Somercotes",
        "place": "village",
        "source": "npe"
      },
      "geometry": {
        "type": "Point",
        "coordinates": [
          0.13124,
          53.4227665
        ]
      },
      "id": "node/31510698"
    },
    {
      "type": "Feature",
      "properties": {
        "@id": "node/31510795",
        "is_in": "Lincolnshire, England, UK",
        "name": "Saltfleetby St Peter",
        "place": "village",
        "source": "npe",
        "wikidata": "Q41972327"
      },
      "geometry": {
        "type": "Point",
        "coordinates": [
          0.1518902,
          53.3812611
        ]
      },
      "id": "node/31510795"
    },
    {
      "type": "Feature",
      "properties": {
        "@id": "node/31511020",
        "is_in": "Lincolnshire, England, UK",
        "name": "Alford",
        "place": "town",
        "source": "Bing",
        "wikidata": "Q1876378",
        "wikipedia": "en:Alford, Lincolnshire"
      },
      "geometry": {
        "type": "Point",
        "coordinates": [
          0.1777346,
          53.2591409
        ]
      },
      "id": "node/31511020"
    },
    {
      "type": "Feature",
      "properties": {
        "@id": "node/31511160",
        "is_in": "Lincolnshire, England, UK",
        "name": "Ulceby",
        "place": "village",
        "source": "Bing",
        "wikidata": "Q7878793"
      },
      "geometry": {
        "type": "Point",
        "coordinates": [
          0.1288343,
          53.2329765
        ]
      },
      "id": "node/31511160"
    },
    {
      "type": "Feature",
      "properties": {
        "@id": "node/31511246",
        "is_in": "Lincolnshire, England, UK",
        "name": "Skendleby",
        "place": "village",
        "source": "Bing"
      },
      "geometry": {
        "type": "Point",
        "coordinates": [
          0.1454886,
          53.2042114
        ]
      },
      "id": "node/31511246"
    },
    {
      "type": "Feature",
      "properties": {
        "@id": "node/31511610",
        "is_in": "Lincolnshire, England, UK",
        "name": "Halton Holegate",
        "place": "village",
        "source": "Bing"
      },
      "geometry": {
        "type": "Point",
        "coordinates": [
          0.117023,
          53.1645304
        ]
      },
      "id": "node/31511610"
    },
    {
      "type": "Feature",
      "properties": {
        "@id": "node/31511649",
        "is_in": "Lincolnshire, England, UK",
        "name": "Great Steeping",
        "place": "village",
        "source": "Bing"
      },
      "geometry": {
        "type": "Point",
        "coordinates": [
          0.1503271,
          53.1576727
        ]
      },
      "id": "node/31511649"
    },
    {
      "type": "Feature",
      "properties": {
        "@id": "node/31511692",
        "is_in": "Lincolnshire, England, UK",
        "name": "Little Steeping",
        "place": "village",
        "source": "npe"
      },
      "geometry": {
        "type": "Point",
        "coordinates": [
          0.1434182,
          53.1428899
        ]
      },
      "id": "node/31511692"
    },
    {
      "type": "Feature",
      "properties": {
        "@id": "node/31511988",
        "name": "Friskney",
        "place": "village",
        "source": "Bing"
      },
      "geometry": {
        "type": "Point",
        "coordinates": [
          0.1795964,
          53.0754153
        ]
      },
      "id": "node/31511988"
    },
    {
      "type": "Feature",
      "properties": {
        "@id": "node/31512071",
        "is_in": "Lincolnshire, England, UK",
        "name": "Wainfleet All Saints",
        "place": "town",
        "source": "npe",
        "wikidata": "Q4017677"
      },
      "geometry": {
        "type": "Point",
        "coordinates": [
          0.2369499,
          53.1074468
        ]
      },
      "id": "node/31512071"
    },
    {
      "type": "Feature",
      "properties": {
        "@id": "node/31512156",
        "is_in": "Lincolnshire, England, UK",
        "name": "Irby in the Marsh",
        "place": "village",
        "source": "Bing"
      },
      "geometry": {
        "type": "Point",
        "coordinates": [
          0.1969162,
          53.1504871
        ]
      },
      "id": "node/31512156"
    },
    {
      "type": "Feature",
      "properties": {
        "@id": "node/31512189",
        "is_in": "Lincolnshire, England, UK",
        "name": "Bratoft",
        "place": "village",
        "source": "Bing"
      },
      "geometry": {
        "type": "Point",
        "coordinates": [
          0.2057099,
          53.1608506
        ]
      },
      "id": "node/31512189"
    },
    {
      "type": "Feature",
      "properties": {
        "@id": "node/31512194",
        "is_in": "Lincolnshire, England, UK",
        "name": "Burgh Le Marsh",
        "place": "town",
        "source": "npe"
      },
      "geometry": {
        "type": "Point",
        "coordinates": [
          0.243838,
          53.1620262
        ]
      },
      "id": "node/31512194"
    },
    {
      "type": "Feature",
      "properties": {
        "@id": "node/31825238",
        "is_in": "Lincolnshire, England, UK",
        "is_in:county": "Lincolnshire",
        "name": "Allington",
        "place": "village"
      },
      "geometry": {
        "type": "Point",
        "coordinates": [
          -0.7242715,
          52.9529688
        ]
      },
      "id": "node/31825238"
    },
    {
      "type": "Feature",
      "properties": {
        "@id": "node/32016822",
        "is_in": "Lincolnshire, England, UK",
        "name": "Beckingham",
        "place": "village"
      },
      "geometry": {
        "type": "Point",
        "coordinates": [
          -0.6930071,
          53.0743449
        ]
      },
      "id": "node/32016822"
    },
    {
      "type": "Feature",
      "properties": {
        "@id": "node/32017771",
        "is_in": "Lincolnshire, England, UK",
        "name": "Wroot",
        "place": "village",
        "wikidata": "Q8038690"
      },
      "geometry": {
        "type": "Point",
        "coordinates": [
          -0.9260625,
          53.5221286
        ]
      },
      "id": "node/32017771"
    },
    {
      "type": "Feature",
      "properties": {
        "@id": "node/33687243",
        "is_in": "Lincolnshire, England, UK",
        "name": "Denton",
        "place": "village"
      },
      "geometry": {
        "type": "Point",
        "coordinates": [
          -0.711023,
          52.8835894
        ]
      },
      "id": "node/33687243"
    },
    {
      "type": "Feature",
      "properties": {
        "@id": "node/55136928",
        "name": "Barton-upon-Humber",
        "place": "town",
        "source": "npe"
      },
      "geometry": {
        "type": "Point",
        "coordinates": [
          -0.4395216,
          53.6858065
        ]
      },
      "id": "node/55136928"
    },
    {
      "type": "Feature",
      "properties": {
        "@id": "node/55136932",
        "name": "Barrow-upon-Humber",
        "place": "village",
        "source": "npe"
      },
      "geometry": {
        "type": "Point",
        "coordinates": [
          -0.3790538,
          53.6766236
        ]
      },
      "id": "node/55136932"
    },
    {
      "type": "Feature",
      "properties": {
        "@id": "node/55136936",
        "created_by": "JOSM",
        "is_in": "Barton-upon-Humber",
        "name": "Barton Waterside",
        "place": "suburb",
        "source": "npe",
        "wikidata": "Q4865700"
      },
      "geometry": {
        "type": "Point",
        "coordinates": [
          -0.4428789,
          53.6961801
        ]
      },
      "id": "node/55136936"
    },
    {
      "type": "Feature",
      "properties": {
        "@id": "node/55136939",
        "is_in": "Lincolnshire",
        "name": "East Halton",
        "place": "village",
        "source": "npe",
        "wikidata": "Q2097269"
      },
      "geometry": {
        "type": "Point",
        "coordinates": [
          -0.2792347,
          53.6628828
        ]
      },
      "id": "node/55136939"
    },
    {
      "type": "Feature",
      "properties": {
        "@id": "node/55136942",
        "name": "South Killingholme",
        "place": "village",
        "source": "npe",
        "wikidata": "Q2683192"
      },
      "geometry": {
        "type": "Point",
        "coordinates": [
          -0.2642896,
          53.6300423
        ]
      },
      "id": "node/55136942"
    },
    {
      "type": "Feature",
      "properties": {
        "@id": "node/55136943",
        "created_by": "JOSM",
        "is_in:district": "North East Lincolnshire",
        "name": "Habrough",
        "place": "village",
        "source": "npe"
      },
      "geometry": {
        "type": "Point",
        "coordinates": [
          -0.2673459,
          53.6081494
        ]
      },
      "id": "node/55136943"
    },
    {
      "type": "Feature",
      "properties": {
        "@id": "node/55136946",
        "created_by": "JOSM",
        "is_in:district": "West Lindsey",
        "name": "Keelby",
        "place": "village",
        "source": "npe",
        "wikidata": "Q6382761"
      },
      "geometry": {
        "type": "Point",
        "coordinates": [
          -0.2438955,
          53.5746924
        ]
      },
      "id": "node/55136946"
    },
    {
      "type": "Feature",
      "properties": {
        "@id": "node/55136948",
        "is_in:district": "North East Lincolnshire",
        "name": "Stallingborough",
        "place": "village",
        "source": "npe"
      },
      "geometry": {
        "type": "Point",
        "coordinates": [
          -0.1855069,
          53.5871929
        ]
      },
      "id": "node/55136948"
    },
    {
      "type": "Feature",
      "properties": {
        "@id": "node/55136951",
        "name": "Immingham",
        "place": "town",
        "source": "npe",
        "wikidata": "Q1013574",
        "wikipedia": "en:Immingham"
      },
      "geometry": {
        "type": "Point",
        "coordinates": [
          -0.2136727,
          53.6159963
        ]
      },
      "id": "node/55136951"
    },
    {
      "type": "Feature",
      "properties": {
        "@id": "node/55136961",
        "name": "Healing",
        "place": "village",
        "source": "npe"
      },
      "geometry": {
        "type": "Point",
        "coordinates": [
          -0.1639457,
          53.5781654
        ]
      },
      "id": "node/55136961"
    },
    {
      "type": "Feature",
      "properties": {
        "@id": "node/55136969",
        "name": "Worlaby",
        "place": "village",
        "source": "npe",
        "wikidata": "Q8035183"
      },
      "geometry": {
        "type": "Point",
        "coordinates": [
          -0.4669351,
          53.6110748
        ]
      },
      "id": "node/55136969"
    },
    {
      "type": "Feature",
      "properties": {
        "@id": "node/55136974",
        "name": "Elsham",
        "place": "village",
        "source": "npe"
      },
      "geometry": {
        "type": "Point",
        "coordinates": [
          -0.4378228,
          53.596952
        ]
      },
      "id": "node/55136974"
    },
    {
      "type": "Feature",
      "properties": {
        "@id": "node/55136976",
        "is_in:district": "North Lincolnshire",
        "name": "Kirmington",
        "place": "village",
        "source": "npe",
        "wikidata": "Q2478186"
      },
      "geometry": {
        "type": "Point",
        "coordinates": [
          -0.3332792,
          53.586049
        ]
      },
      "id": "node/55136976"
    },
    {
      "type": "Feature",
      "properties": {
        "@id": "node/55136983",
        "is_in:district": "North Lincolnshire",
        "name": "Barnetby le Wold",
        "place": "village",
        "source": "survey",
        "wikidata": "Q602355"
      },
      "geometry": {
        "type": "Point",
        "coordinates": [
          -0.4023917,
          53.5732788
        ]
      },
      "id": "node/55136983"
    },
    {
      "type": "Feature",
      "properties": {
        "@id": "node/55136987",
        "is_in:district": "North Lincolnshire",
        "name": "Melton Ross",
        "place": "village",
        "source": "npe",
        "wikidata": "Q6813799"
      },
      "geometry": {
        "type": "Point",
        "coordinates": [
          -0.3831395,
          53.5811655
        ]
      },
      "id": "node/55136987"
    },
    {
      "type": "Feature",
      "properties": {
        "@id": "node/55137032",
        "is_in": "Lincolnshire, England, UK",
        "name": "Bradley",
        "place": "village",
        "source": "npe"
      },
      "geometry": {
        "type": "Point",
        "coordinates": [
          -0.1243661,
          53.5417629
        ]
      },
      "id": "node/55137032"
    },
    {
      "type": "Feature",
      "properties": {
        "@id": "node/55137034",
        "is_in": "Lincolnshire, England, UK",
        "name": "Old Clee",
        "place": "village",
        "source": "npe",
        "wikidata": "Q949692"
      },
      "geometry": {
        "type": "Point",
        "coordinates": [
          -0.052691,
          53.5578634
        ]
      },
      "id": "node/55137034"
    },
    {
      "type": "Feature",
      "properties": {
        "@id": "node/60571795",
        "is_in": "Lincolnshire, England, UK",
        "name": "Cranwell",
        "place": "village",
        "source": "npe"
      },
      "geometry": {
        "type": "Point",
        "coordinates": [
          -0.4629025,
          53.0375651
        ]
      },
      "id": "node/60571795"
    },
    {
      "type": "Feature",
      "properties": {
        "@id": "node/60571796",
        "is_in": "Lincolnshire, England, UK",
        "name": "Leasingham",
        "place": "village",
        "source": "npe"
      },
      "geometry": {
        "type": "Point",
        "coordinates": [
          -0.4249358,
          53.0260911
        ]
      },
      "id": "node/60571796"
    },
    {
      "type": "Feature",
      "properties": {
        "@id": "node/60574099",
        "is_in": "Lincolnshire, England, UK",
        "name": "Donington on Bain",
        "place": "village",
        "source": "Bing"
      },
      "geometry": {
        "type": "Point",
        "coordinates": [
          -0.1456257,
          53.3290828
        ]
      },
      "id": "node/60574099"
    },
    {
      "type": "Feature",
      "properties": {
        "@id": "node/60574101",
        "is_in": "Lincolnshire, England, UK",
        "is_in:district": "North East Lincolnshire",
        "name": "Wold Newton",
        "place": "village",
        "source": "npe"
      },
      "geometry": {
        "type": "Point",
        "coordinates": [
          -0.1283258,
          53.4517959
        ]
      },
      "id": "node/60574101"
    },
    {
      "type": "Feature",
      "properties": {
        "@id": "node/60574104",
        "is_in": "Lincolnshire, England, UK",
        "name": "Ashby cum Fenby",
        "place": "village",
        "source": "npe"
      },
      "geometry": {
        "type": "Point",
        "coordinates": [
          -0.1119379,
          53.4882228
        ]
      },
      "id": "node/60574104"
    },
    {
      "type": "Feature",
      "properties": {
        "@id": "node/60574106",
        "is_in": "Lincolnshire, England, UK",
        "name": "Brigsley",
        "place": "village",
        "source": "npe"
      },
      "geometry": {
        "type": "Point",
        "coordinates": [
          -0.1115367,
          53.4986919
        ]
      },
      "id": "node/60574106"
    },
    {
      "type": "Feature",
      "properties": {
        "@id": "node/60574107",
        "is_in": "Lincolnshire, England, UK",
        "is_in:district": "North East Lincolnshire",
        "name": "Barnoldby le Beck",
        "place": "village",
        "source": "npe"
      },
      "geometry": {
        "type": "Point",
        "coordinates": [
          -0.1374487,
          53.5114617
        ]
      },
      "id": "node/60574107"
    },
    {
      "type": "Feature",
      "properties": {
        "@id": "node/68329606",
        "is_in": "Lincolnshire, England, UK",
        "is_in:country_code": "GB",
        "is_in:county": "Lincolnshire",
        "name": "Ancaster",
        "old_name": "Cavsennae",
        "place": "village"
      },
      "geometry": {
        "type": "Point",
        "coordinates": [
          -0.5345307,
          52.9857374
        ]
      },
      "id": "node/68329606"
    },
    {
      "type": "Feature",
      "properties": {
        "@id": "node/81758504",
        "is_in": "Lincolnshire, England, UK",
        "name": "Morton",
        "place": "village"
      },
      "geometry": {
        "type": "Point",
        "coordinates": [
          -0.3717714,
          52.8026581
        ]
      },
      "id": "node/81758504"
    },
    {
      "type": "Feature",
      "properties": {
        "@id": "node/82507824",
        "is_in": "Lincolnshire, England, UK",
        "name": "Newton on Trent",
        "place": "village"
      },
      "geometry": {
        "type": "Point",
        "coordinates": [
          -0.7539539,
          53.2586691
        ]
      },
      "id": "node/82507824"
    },
    {
      "type": "Feature",
      "properties": {
        "@id": "node/82510856",
        "is_in": "Lincolnshire, England, UK",
        "name": "Kexby",
        "place": "village",
        "wikidata": "Q6397982"
      },
      "geometry": {
        "type": "Point",
        "coordinates": [
          -0.688613,
          53.3624177
        ]
      },
      "id": "node/82510856"
    },
    {
      "type": "Feature",
      "properties": {
        "@id": "node/82510859",
        "alt_name": "Willingham",
        "is_in": "Lincolnshire, England, UK",
        "name": "Willingham by Stow",
        "place": "village",
        "wikidata": "Q2544871"
      },
      "geometry": {
        "type": "Point",
        "coordinates": [
          -0.6853095,
          53.3501237
        ]
      },
      "id": "node/82510859"
    },
    {
      "type": "Feature",
      "properties": {
        "@id": "node/82510861",
        "is_in": "Lincolnshire, England, UK",
        "name": "Upton",
        "place": "village",
        "wikidata": "Q7899354"
      },
      "geometry": {
        "type": "Point",
        "coordinates": [
          -0.6954811,
          53.3713111
        ]
      },
      "id": "node/82510861"
    },
    {
      "type": "Feature",
      "properties": {
        "@id": "node/82510864",
        "is_in": "Lincolnshire, England, UK",
        "name": "Heapham",
        "place": "village",
        "wikidata": "Q5691523"
      },
      "geometry": {
        "type": "Point",
        "coordinates": [
          -0.6841142,
          53.3847321
        ]
      },
      "id": "node/82510864"
    },
    {
      "type": "Feature",
      "properties": {
        "@id": "node/82510868",
        "is_in": "Lincolnshire, England, UK",
        "name": "Glentworth",
        "place": "village",
        "wikidata": "Q5569369",
        "wikipedia": "en:Glentworth, Lincolnshire"
      },
      "geometry": {
        "type": "Point",
        "coordinates": [
          -0.5795049,
          53.3814124
        ]
      },
      "id": "node/82510868"
    },
    {
      "type": "Feature",
      "properties": {
        "@id": "node/82510872",
        "alt_name": "Normanby",
        "is_in": "Lincolnshire, England, UK",
        "name": "Normanby-by-Spital",
        "place": "village",
        "wikidata": "Q7053005"
      },
      "geometry": {
        "type": "Point",
        "coordinates": [
          -0.4965278,
          53.3798407
        ]
      },
      "id": "node/82510872"
    },
    {
      "type": "Feature",
      "properties": {
        "@id": "node/82510874",
        "alt_name": "Owmby",
        "is_in": "Lincolnshire, England, UK",
        "name": "Owmby-by-Spital",
        "place": "village",
        "wikidata": "Q7114916"
      },
      "geometry": {
        "type": "Point",
        "coordinates": [
          -0.4969882,
          53.3745771
        ]
      },
      "id": "node/82510874"
    },
    {
      "type": "Feature",
      "properties": {
        "@id": "node/82510878",
        "is_in": "Lincolnshire, England, UK",
        "name": "Spridlington",
        "place": "village",
        "wikidata": "Q7580327"
      },
      "geometry": {
        "type": "Point",
        "coordinates": [
          -0.4862988,
          53.3480476
        ]
      },
      "id": "node/82510878"
    },
    {
      "type": "Feature",
      "properties": {
        "@id": "node/82510880",
        "is_in": "Lincolnshire, England, UK",
        "name": "Ingham",
        "place": "village",
        "wikidata": "Q11712504"
      },
      "geometry": {
        "type": "Point",
        "coordinates": [
          -0.5775001,
          53.3398765
        ]
      },
      "id": "node/82510880"
    },
    {
      "type": "Feature",
      "properties": {
        "@id": "node/82512111",
        "is_in": "Lincolnshire, England, UK",
        "name": "North Carlton",
        "place": "village",
        "wikidata": "Q1993520"
      },
      "geometry": {
        "type": "Point",
        "coordinates": [
          -0.5844751,
          53.2873227
        ]
      },
      "id": "node/82512111"
    },
    {
      "type": "Feature",
      "properties": {
        "@id": "node/82512113",
        "name": "South Carlton",
        "place": "village",
        "wikidata": "Q7566517"
      },
      "geometry": {
        "type": "Point",
        "coordinates": [
          -0.5744583,
          53.2770298
        ]
      },
      "id": "node/82512113"
    },
    {
      "type": "Feature",
      "properties": {
        "@id": "node/82512115",
        "is_in": "Lincolnshire, England, UK",
        "name": "Skellingthorpe",
        "place": "village",
        "population": "3465",
        "wikidata": "Q9337822",
        "wikipedia": "en:Skellingthorpe"
      },
      "geometry": {
        "type": "Point",
        "coordinates": [
          -0.6187203,
          53.2357049
        ]
      },
      "id": "node/82512115"
    },
    {
      "type": "Feature",
      "properties": {
        "@id": "node/82515500",
        "is_in": "Lincolnshire, England, UK",
        "name": "Stow",
        "place": "village",
        "wikidata": "Q2255910"
      },
      "geometry": {
        "type": "Point",
        "coordinates": [
          -0.6758648,
          53.327436
        ]
      },
      "id": "node/82515500"
    },
    {
      "type": "Feature",
      "properties": {
        "@id": "node/82515501",
        "alt_name": "Sturton",
        "is_in": "Lincolnshire, England, UK",
        "name": "Sturton by Stow",
        "place": "village",
        "wikidata": "Q7629165"
      },
      "geometry": {
        "type": "Point",
        "coordinates": [
          -0.663853,
          53.3138879
        ]
      },
      "id": "node/82515501"
    },
    {
      "type": "Feature",
      "properties": {
        "@id": "node/82515502",
        "name": "Bransby",
        "place": "village",
        "wikidata": "Q4957549"
      },
      "geometry": {
        "type": "Point",
        "coordinates": [
          -0.6515674,
          53.3027561
        ]
      },
      "id": "node/82515502"
    },
    {
      "type": "Feature",
      "properties": {
        "@id": "node/82515504",
        "is_in": "Lincolnshire, England, UK",
        "name": "Saxilby",
        "place": "village"
      },
      "geometry": {
        "type": "Point",
        "coordinates": [
          -0.6625779,
          53.2677549
        ]
      },
      "id": "node/82515504"
    },
    {
      "type": "Feature",
      "properties": {
        "@id": "node/82515507",
        "is_in": "Lincolnshire, England, UK",
        "name": "Thorpe on the Hill",
        "place": "village"
      },
      "geometry": {
        "type": "Point",
        "coordinates": [
          -0.6428738,
          53.1793764
        ]
      },
      "id": "node/82515507"
    },
    {
      "type": "Feature",
      "properties": {
        "@id": "node/82515508",
        "is_in": "Lincolnshire, England, UK",
        "name": "Aubourn",
        "place": "village"
      },
      "geometry": {
        "type": "Point",
        "coordinates": [
          -0.6179633,
          53.1535602
        ]
      },
      "id": "node/82515508"
    },
    {
      "type": "Feature",
      "properties": {
        "@id": "node/82536354",
        "is_in": "Lincolnshire, England, UK",
        "name": "Burton le Coggles",
        "note": "Name appears as Burton Coggles on route signs",
        "place": "village",
        "source:name": "Village signposts"
      },
      "geometry": {
        "type": "Point",
        "coordinates": [
          -0.5481757,
          52.820533
        ]
      },
      "id": "node/82536354"
    },
    {
      "type": "Feature",
      "properties": {
        "@id": "node/82536355",
        "is_in": "Lincolnshire, England, UK",
        "name": "Swayfield",
        "place": "village"
      },
      "geometry": {
        "type": "Point",
        "coordinates": [
          -0.5323912,
          52.7937315
        ]
      },
      "id": "node/82536355"
    },
    {
      "type": "Feature",
      "properties": {
        "@id": "node/82536357",
        "name": "Creeton",
        "place": "village"
      },
      "geometry": {
        "type": "Point",
        "coordinates": [
          -0.5024833,
          52.7676647
        ]
      },
      "id": "node/82536357"
    },
    {
      "type": "Feature",
      "properties": {
        "@id": "node/82536358",
        "description": "Edenham is a village situated on the A151 Road. The East Glen River flows through the village. Notable features include the St Michael and all Angels church and The Five Bells pub.",
        "name": "Edenham",
        "place": "village",
        "population": "291",
        "population:date": "2011",
        "source:population": "wikipedia"
      },
      "geometry": {
        "type": "Point",
        "coordinates": [
          -0.4274128,
          52.7838732
        ]
      },
      "id": "node/82536358"
    },
    {
      "type": "Feature",
      "properties": {
        "@id": "node/82536359",
        "name": "Grimsthorpe",
        "place": "village",
        "wikidata": "Q743687",
        "wikipedia": "en:Grimsthorpe"
      },
      "geometry": {
        "type": "Point",
        "coordinates": [
          -0.4497444,
          52.7943866
        ]
      },
      "id": "node/82536359"
    },
    {
      "type": "Feature",
      "properties": {
        "@id": "node/82536362",
        "is_in": "Lincolnshire, England, UK",
        "name": "Irnham",
        "place": "village"
      },
      "geometry": {
        "type": "Point",
        "coordinates": [
          -0.4814858,
          52.8289444
        ]
      },
      "id": "node/82536362"
    },
    {
      "type": "Feature",
      "properties": {
        "@id": "node/82536363",
        "is_in": "Lincolnshire, England, UK",
        "name": "Corby Glen",
        "old_name": "Corby",
        "place": "village",
        "population": "2000"
      },
      "geometry": {
        "type": "Point",
        "coordinates": [
          -0.5197684,
          52.813391
        ]
      },
      "id": "node/82536363"
    },
    {
      "type": "Feature",
      "properties": {
        "@id": "node/82536364",
        "is_in": "Lincolnshire, England, UK",
        "name": "Hanthorpe",
        "place": "village"
      },
      "geometry": {
        "type": "Point",
        "coordinates": [
          -0.389785,
          52.8021037
        ]
      },
      "id": "node/82536364"
    },
    {
      "type": "Feature",
      "properties": {
        "@id": "node/82536366",
        "is_in": "Lincolnshire, England, UK",
        "name": "Haconby",
        "old_name": "Hacconby",
        "place": "village"
      },
      "geometry": {
        "type": "Point",
        "coordinates": [
          -0.3617334,
          52.8144993
        ]
      },
      "id": "node/82536366"
    },
    {
      "type": "Feature",
      "properties": {
        "@id": "node/82536368",
        "is_in": "Lincolnshire, England, UK",
        "name": "Dunsby",
        "place": "village"
      },
      "geometry": {
        "type": "Point",
        "coordinates": [
          -0.3593942,
          52.8279012
        ]
      },
      "id": "node/82536368"
    },
    {
      "type": "Feature",
      "properties": {
        "@id": "node/82536372",
        "is_in": "Lincolnshire, England, UK",
        "name": "Aslackby",
        "place": "village"
      },
      "geometry": {
        "type": "Point",
        "coordinates": [
          -0.3907678,
          52.8599151
        ]
      },
      "id": "node/82536372"
    },
    {
      "type": "Feature",
      "properties": {
        "@id": "node/82536373",
        "is_in": "Lincolnshire, England, UK",
        "name": "Pointon",
        "place": "village"
      },
      "geometry": {
        "type": "Point",
        "coordinates": [
          -0.3429841,
          52.8726526
        ]
      },
      "id": "node/82536373"
    },
    {
      "type": "Feature",
      "properties": {
        "@id": "node/82536374",
        "is_in": "Lincolnshire, England, UK",
        "name": "Billingborough",
        "place": "village"
      },
      "geometry": {
        "type": "Point",
        "coordinates": [
          -0.3409855,
          52.8938586
        ]
      },
      "id": "node/82536374"
    },
    {
      "type": "Feature",
      "properties": {
        "@id": "node/82536376",
        "is_in": "Lincolnshire, England, UK",
        "name": "Horbling",
        "place": "village"
      },
      "geometry": {
        "type": "Point",
        "coordinates": [
          -0.3375522,
          52.9038266
        ]
      },
      "id": "node/82536376"
    },
    {
      "type": "Feature",
      "properties": {
        "@id": "node/82536377",
        "is_in": "Lincolnshire, England, UK",
        "name": "Threekingham",
        "place": "village"
      },
      "geometry": {
        "type": "Point",
        "coordinates": [
          -0.3814691,
          52.9123241
        ]
      },
      "id": "node/82536377"
    },
    {
      "type": "Feature",
      "properties": {
        "@id": "node/82536381",
        "name": "Newton",
        "place": "village",
        "wikidata": "Q11790934",
        "wikipedia": "en:Newton, Lincolnshire"
      },
      "geometry": {
        "type": "Point",
        "coordinates": [
          -0.4444255,
          52.9135661
        ]
      },
      "id": "node/82536381"
    },
    {
      "type": "Feature",
      "properties": {
        "@id": "node/82536387",
        "is_in": "Lincolnshire, England, UK",
        "name": "Pickworth",
        "place": "village"
      },
      "geometry": {
        "type": "Point",
        "coordinates": [
          -0.4506361,
          52.8896933
        ]
      },
      "id": "node/82536387"
    },
    {
      "type": "Feature",
      "properties": {
        "@id": "node/82536392",
        "is_in": "Lincolnshire, England, UK",
        "name": "Ingoldsby",
        "place": "village"
      },
      "geometry": {
        "type": "Point",
        "coordinates": [
          -0.4993236,
          52.8592595
        ]
      },
      "id": "node/82536392"
    },
    {
      "type": "Feature",
      "properties": {
        "@id": "node/82536396",
        "is_in": "Lincolnshire, England, UK",
        "name": "Kirkby Underwood",
        "place": "village"
      },
      "geometry": {
        "type": "Point",
        "coordinates": [
          -0.4066494,
          52.8320699
        ]
      },
      "id": "node/82536396"
    },
    {
      "type": "Feature",
      "properties": {
        "@id": "node/82536397",
        "is_in": "Lincolnshire, England, UK",
        "name": "Old Somerby",
        "place": "village"
      },
      "geometry": {
        "type": "Point",
        "coordinates": [
          -0.5741343,
          52.8922526
        ]
      },
      "id": "node/82536397"
    },
    {
      "type": "Feature",
      "properties": {
        "@id": "node/82536398",
        "alt_name": "Boothby Pagnall",
        "is_in": "Lincolnshire, England, UK",
        "name": "Boothby Pagnell",
        "place": "village"
      },
      "geometry": {
        "type": "Point",
        "coordinates": [
          -0.5592875,
          52.866846
        ]
      },
      "id": "node/82536398"
    },
    {
      "type": "Feature",
      "properties": {
        "@id": "node/82536401",
        "name": "Great Ponton",
        "place": "village"
      },
      "geometry": {
        "type": "Point",
        "coordinates": [
          -0.6261511,
          52.8630742
        ]
      },
      "id": "node/82536401"
    },
    {
      "type": "Feature",
      "properties": {
        "@id": "node/82536402",
        "is_in": "Lincolnshire, England, UK",
        "name": "Risegate",
        "place": "village",
        "wikidata": "Q43964608"
      },
      "geometry": {
        "type": "Point",
        "coordinates": [
          -0.1985818,
          52.8529075
        ]
      },
      "id": "node/82536402"
    },
    {
      "type": "Feature",
      "properties": {
        "@id": "node/89025947",
        "is_in": "Lincolnshire, England, UK",
        "name": "East Ferry",
        "place": "village"
      },
      "geometry": {
        "type": "Point",
        "coordinates": [
          -0.7734562,
          53.4882836
        ]
      },
      "id": "node/89025947"
    },
    {
      "type": "Feature",
      "properties": {
        "@id": "node/89025949",
        "is_in": "Lincolnshire, England, UK",
        "name": "Owston Ferry",
        "place": "village",
        "wikidata": "Q2293904"
      },
      "geometry": {
        "type": "Point",
        "coordinates": [
          -0.780015,
          53.4926549
        ]
      },
      "id": "node/89025949"
    },
    {
      "type": "Feature",
      "properties": {
        "@id": "node/89026392",
        "name": "West Butterwick",
        "place": "village",
        "wikidata": "Q7984627"
      },
      "geometry": {
        "type": "Point",
        "coordinates": [
          -0.7409949,
          53.5428481
        ]
      },
      "id": "node/89026392"
    },
    {
      "type": "Feature",
      "properties": {
        "@id": "node/89033497",
        "is_in": "Lincolnshire, England, UK",
        "is_in:district": "West Lindsey",
        "name": "Scotter",
        "place": "village",
        "wikidata": "Q7437584"
      },
      "geometry": {
        "type": "Point",
        "coordinates": [
          -0.6674861,
          53.4977931
        ]
      },
      "id": "node/89033497"
    },
    {
      "type": "Feature",
      "properties": {
        "@id": "node/89033530",
        "is_in:district": "West Lindsey",
        "name": "Searby",
        "place": "village",
        "wikidata": "Q7441609"
      },
      "geometry": {
        "type": "Point",
        "coordinates": [
          -0.3845898,
          53.5381296
        ]
      },
      "id": "node/89033530"
    },
    {
      "type": "Feature",
      "properties": {
        "@id": "node/89033531",
        "created_by": "JOSM",
        "is_in:district": "West Lindsey",
        "name": "Bigby",
        "place": "village",
        "wikidata": "Q4906795"
      },
      "geometry": {
        "type": "Point",
        "coordinates": [
          -0.4016915,
          53.5529218
        ]
      },
      "id": "node/89033531"
    },
    {
      "type": "Feature",
      "properties": {
        "@id": "node/89038620",
        "is_in:district": "West Lindsey",
        "name": "Great Limber",
        "place": "village",
        "source": "Bing",
        "wikidata": "Q2514869"
      },
      "geometry": {
        "type": "Point",
        "coordinates": [
          -0.2900625,
          53.5621956
        ]
      },
      "id": "node/89038620"
    },
    {
      "type": "Feature",
      "properties": {
        "@id": "node/89038688",
        "is_in": "Lincolnshire, England, UK",
        "is_in:district": "North East Lincolnshire",
        "name": "Aylesby",
        "place": "village",
        "source": "NPE"
      },
      "geometry": {
        "type": "Point",
        "coordinates": [
          -0.1831318,
          53.5516204
        ]
      },
      "id": "node/89038688"
    },
    {
      "type": "Feature",
      "properties": {
        "@id": "node/89038693",
        "is_in:district": "North East Lincolnshire",
        "name": "Laceby",
        "place": "village"
      },
      "geometry": {
        "type": "Point",
        "coordinates": [
          -0.1704012,
          53.5418215
        ]
      },
      "id": "node/89038693"
    },
    {
      "type": "Feature",
      "properties": {
        "@id": "node/89038701",
        "is_in": "Lincolnshire, England, UK",
        "is_in:district": "North East Lincolnshire",
        "name": "Irby upon Humber",
        "place": "village",
        "wikidata": "Q11713702"
      },
      "geometry": {
        "type": "Point",
        "coordinates": [
          -0.1966817,
          53.5266402
        ]
      },
      "id": "node/89038701"
    },
    {
      "type": "Feature",
      "properties": {
        "@id": "node/89043729",
        "is_in:district": "We",
        "name": "Swallow",
        "place": "village",
        "wikidata": "Q7653083"
      },
      "geometry": {
        "type": "Point",
        "coordinates": [
          -0.2263426,
          53.5102865
        ]
      },
      "id": "node/89043729"
    },
    {
      "type": "Feature",
      "properties": {
        "@id": "node/89043732",
        "is_in": "Lincolnshire, England, UK",
        "is_in:district": "North East Lincolnshire",
        "name": "Hatcliffe",
        "place": "village"
      },
      "geometry": {
        "type": "Point",
        "coordinates": [
          -0.1723789,
          53.4891174
        ]
      },
      "id": "node/89043732"
    },
    {
      "type": "Feature",
      "properties": {
        "@id": "node/89043733",
        "is_in": "Lincolnshire, England, UK",
        "name": "Thorganby",
        "place": "village",
        "wikidata": "Q13131875"
      },
      "geometry": {
        "type": "Point",
        "coordinates": [
          -0.1818861,
          53.4619832
        ]
      },
      "id": "node/89043733"
    },
    {
      "type": "Feature",
      "properties": {
        "@id": "node/89043734",
        "is_in": "Lincolnshire, England, UK",
        "is_in:district": "West Lindsey",
        "name": "Swinhope",
        "place": "village",
        "wikidata": "Q20081043"
      },
      "geometry": {
        "type": "Point",
        "coordinates": [
          -0.1731891,
          53.4496098
        ]
      },
      "id": "node/89043734"
    },
    {
      "type": "Feature",
      "properties": {
        "@id": "node/105907547",
        "name": "Tealby",
        "place": "village"
      },
      "geometry": {
        "type": "Point",
        "coordinates": [
          -0.2633781,
          53.4005753
        ]
      },
      "id": "node/105907547"
    },
    {
      "type": "Feature",
      "properties": {
        "@id": "node/168342673",
        "is_in": "Lincolnshire, England, UK",
        "name": "Epworth",
        "place": "town",
        "wikidata": "Q2409258"
      },
      "geometry": {
        "type": "Point",
        "coordinates": [
          -0.8201895,
          53.5249277
        ]
      },
      "id": "node/168342673"
    },
    {
      "type": "Feature",
      "properties": {
        "@id": "node/209096158",
        "is_in": "Lincolnshire, England, UK",
        "name": "Fenton",
        "place": "village"
      },
      "geometry": {
        "type": "Point",
        "coordinates": [
          -0.7314504,
          53.2800588
        ]
      },
      "id": "node/209096158"
    },
    {
      "type": "Feature",
      "properties": {
        "@id": "node/243382873",
        "name": "Winteringham",
        "place": "village",
        "source": "NPE",
        "wikidata": "Q8026475"
      },
      "geometry": {
        "type": "Point",
        "coordinates": [
          -0.590982,
          53.6878513
        ]
      },
      "id": "node/243382873"
    },
    {
      "type": "Feature",
      "properties": {
        "@id": "node/243382876",
        "name": "Winterton",
        "place": "town",
        "population": "4,899",
        "source": "NPE",
        "wikidata": "Q728129"
      },
      "geometry": {
        "type": "Point",
        "coordinates": [
          -0.5979698,
          53.6549545
        ]
      },
      "id": "node/243382876"
    },
    {
      "type": "Feature",
      "properties": {
        "@id": "node/243382878",
        "name": "Appleby",
        "place": "village",
        "source": "NPE",
        "wikidata": "Q4781302"
      },
      "geometry": {
        "type": "Point",
        "coordinates": [
          -0.5631518,
          53.6216268
        ]
      },
      "id": "node/243382878"
    },
    {
      "type": "Feature",
      "properties": {
        "@id": "node/243382883",
        "name": "Roxby",
        "place": "village",
        "source": "NPE",
        "wikidata": "Q7372425"
      },
      "geometry": {
        "type": "Point",
        "coordinates": [
          -0.6084773,
          53.6415111
        ]
      },
      "id": "node/243382883"
    },
    {
      "type": "Feature",
      "properties": {
        "@id": "node/243382886",
        "name": "West Halton",
        "place": "village",
        "source": "NPE",
        "wikidata": "Q1138666"
      },
      "geometry": {
        "type": "Point",
        "coordinates": [
          -0.6307715,
          53.6777943
        ]
      },
      "id": "node/243382886"
    },
    {
      "type": "Feature",
      "properties": {
        "@id": "node/243382894",
        "name": "Alkborough",
        "place": "village",
        "source": "NPE",
        "wikidata": "Q989821"
      },
      "geometry": {
        "type": "Point",
        "coordinates": [
          -0.6655823,
          53.6847946
        ]
      },
      "id": "node/243382894"
    },
    {
      "type": "Feature",
      "properties": {
        "@id": "node/243382897",
        "name": "Whitton",
        "place": "village",
        "source": "NPE"
      },
      "geometry": {
        "type": "Point",
        "coordinates": [
          -0.6344763,
          53.7089154
        ]
      },
      "id": "node/243382897"
    },
    {
      "type": "Feature",
      "properties": {
        "@id": "node/243382902",
        "created_by": "JOSM",
        "name": "Burton upon Stather",
        "place": "village",
        "source": "NPE",
        "wikidata": "Q746031"
      },
      "geometry": {
        "type": "Point",
        "coordinates": [
          -0.6836021,
          53.6488582
        ]
      },
      "id": "node/243382902"
    },
    {
      "type": "Feature",
      "properties": {
        "@id": "node/243382907",
        "name": "Fockerby",
        "note": "location based on village signs",
        "place": "village",
        "source": "survey",
        "wikidata": "Q5463894"
      },
      "geometry": {
        "type": "Point",
        "coordinates": [
          -0.7184336,
          53.6629205
        ]
      },
      "id": "node/243382907"
    },
    {
      "type": "Feature",
      "properties": {
        "@id": "node/243382910",
        "name": "Garthorpe",
        "note": "location based on surrounding village signs",
        "place": "village",
        "source": "survey",
        "wikidata": "Q5524410"
      },
      "geometry": {
        "type": "Point",
        "coordinates": [
          -0.7185008,
          53.6609884
        ]
      },
      "id": "node/243382910"
    },
    {
      "type": "Feature",
      "properties": {
        "@id": "node/243382912",
        "created_by": "JOSM",
        "name": "Luddington",
        "place": "village",
        "source": "NPE",
        "wikidata": "Q667136"
      },
      "geometry": {
        "type": "Point",
        "coordinates": [
          -0.7450246,
          53.6393166
        ]
      },
      "id": "node/243382912"
    },
    {
      "type": "Feature",
      "properties": {
        "@id": "node/243382915",
        "name": "Amcotts",
        "place": "village",
        "source": "NPE",
        "wikidata": "Q4742051"
      },
      "geometry": {
        "type": "Point",
        "coordinates": [
          -0.7049348,
          53.6170368
        ]
      },
      "id": "node/243382915"
    },
    {
      "type": "Feature",
      "properties": {
        "@id": "node/243382918",
        "name": "Flixborough",
        "place": "village",
        "source": "NPE",
        "wikidata": "Q2803658"
      },
      "geometry": {
        "type": "Point",
        "coordinates": [
          -0.6822297,
          53.6248597
        ]
      },
      "id": "node/243382918"
    },